# 
# Header Description:
# 
# Version: v3.1.1.1 Platform: 10 Manufacturer: Google Model: Pixel 2 XL GNSS Hardware Model Name: 
# 
# Raw,utcTimeMillis,TimeNanos,LeapSecond,TimeUncertaintyNanos,FullBiasNanos,BiasNanos,BiasUncertaintyNanos,DriftNanosPerSecond,DriftUncertaintyNanosPerSecond,HardwareClockDiscontinuityCount,Svid,TimeOffsetNanos,State,ReceivedSvTimeNanos,ReceivedSvTimeUncertaintyNanos,Cn0DbHz,PseudorangeRateMetersPerSecond,PseudorangeRateUncertaintyMetersPerSecond,AccumulatedDeltaRangeState,AccumulatedDeltaRangeMeters,AccumulatedDeltaRangeUncertaintyMeters,CarrierFrequencyHz,CarrierCycles,CarrierPhase,CarrierPhaseUncertainty,MultipathIndicator,SnrInDb,ConstellationType,AgcDb,BasebandCn0DbHz,FullInterSignalBiasNanos,FullInterSignalBiasUncertaintyNanos,SatelliteInterSignalBiasNanos,SatelliteInterSignalBiasUncertaintyNanos,CodeType,ChipsetElapsedRealtimeNanos,IsFullTracking,SvPositionEcefXMeters,SvPositionEcefYMeters,SvPositionEcefZMeters,SvVelocityEcefXMetersPerSecond,SvVelocityEcefYMetersPerSecond,SvVelocityEcefZMetersPerSecond,SvClockBiasMeters,SvClockDriftMetersPerSecond,KlobucharAlpha0,KlobucharAlpha1,KlobucharAlpha2,KlobucharAlpha3,KlobucharBeta0,KlobucharBeta1,KlobucharBeta2,KlobucharBeta3
# 
# UncalAccel,utcTimeMillis,elapsedRealtimeNanos,UncalAccelXMps2,UncalAccelYMps2,UncalAccelZMps2,BiasXMps2,BiasYMps2,BiasZMps2,CalibrationAccuracy
# 
# Accel,utcTimeMillis,elapsedRealtimeNanos,AccelXMps2,AccelYMps2,AccelZMps2,CalibrationAccuracy
# 
# UncalGyro,utcTimeMillis,elapsedRealtimeNanos,UncalGyroXRadPerSec,UncalGyroYRadPerSec,UncalGyroZRadPerSec,DriftXRadPerSec,DriftYRadPerSec,DriftZRadPerSec,CalibrationAccuracy
# 
# Gyro,utcTimeMillis,elapsedRealtimeNanos,GyroXRadPerSec,GyroYRadPerSec,GyroZRadPerSec,CalibrationAccuracy
# 
# UncalMag,utcTimeMillis,elapsedRealtimeNanos,UncalMagXMicroT,UncalMagYMicroT,UncalMagZMicroT,BiasXMicroT,BiasYMicroT,BiasZMicroT,CalibrationAccuracy
# 
# Mag,utcTimeMillis,elapsedRealtimeNanos,MagXMicroT,MagYMicroT,MagZMicroT,CalibrationAccuracy
# 
# Pressure,utcTimeMillis,elapsedRealtimeNanos,PressureHpa,CalibrationAccuracy
# 
# OrientationDeg,utcTimeMillis,elapsedRealtimeNanos,yawDeg,rollDeg,pitchDeg,CalibrationAccuracy
# 
# Fix,Provider,LatitudeDegrees,LongitudeDegrees,AltitudeMeters,SpeedMps,AccuracyMeters,BearingDegrees,UnixTimeMillis,SpeedAccuracyMps,BearingAccuracyDegrees,elapsedRealtimeNanos,VerticalAccuracyMeters,MockLocation,NumberOfUsedSignals,VerticalSpeedAccuracyMps,SolutionType
# 
# Nav,Svid,Type,Status,MessageId,Sub-messageId,Data(Bytes)
# 
# Status,UnixTimeMillis,SignalCount,SignalIndex,ConstellationType,Svid,CarrierFrequencyHz,Cn0DbHz,AzimuthDegrees,ElevationDegrees,UsedInFix,HasAlmanacData,HasEphemerisData,BasebandCn0DbHz
# 
# Agc,utcTimeMillis,TimeNanos,LeapSecond,TimeUncertaintyNanos,FullBiasNanos,BiasNanos,BiasUncertaintyNanos,DriftNanosPerSecond,DriftUncertaintyNanosPerSecond,HardwareClockDiscontinuityCount,AgcDb,CarrierFrequencyHz,ConstellationType
# 
UncalMag,1764275189777,264212328550552,-20.491028,40.45105,-34.465027,0.0,0.0,0.0,3
UncalAccel,1764275189772,264212323728775,-0.11730957,-0.3158722,9.620895,0.0,0.0,0.0,3
UncalGyro,1764275189770,264212321317886,-0.013824463,0.007019043,0.0029296875,-0.015899658,0.0057525635,0.0005493164,3
Fix,FLP,41.4232239000,-81.4758796000,312.6145357904751,0.0,3.216,,1764275189607,0.092195444,,264212158665138,1.8960327,,,,
UncalAccel,1764275189780,264212331114029,0.038726807,-0.5090332,9.878387,0.0,0.0,0.0,3
UncalMag,1764275189787,264212338346695,-20.040894,40.45105,-32.514954,0.0,0.0,0.0,3
UncalMag,1764275189797,264212348051285,-20.191956,40.60211,-34.31549,0.0,0.0,0.0,3
UncalAccel,1764275189792,264212343229507,0.038726807,-0.5090332,9.878387,0.0,0.0,0.0,3
UncalMag,1764275189806,264212357816910,-20.64209,40.60211,-33.114624,0.0,0.0,0.0,3
UncalAccel,1764275189801,264212352995132,0.038726807,-0.5090332,9.878387,0.0,0.0,0.0,3
Pressure,1764275189811,264212362333511,974.5729,3
UncalMag,1764275189816,264212367582535,-20.191956,40.60211,-33.415222,0.0,0.0,0.0,3
UncalAccel,1764275189811,264212362699722,-0.08610535,-0.3325653,9.734009,0.0,0.0,0.0,3
UncalGyro,1764275189814,264212365202163,-0.011383057,0.0,0.00018310547,-0.015899658,0.0057525635,0.0005493164,3
UncalMag,1764275189826,264212377348160,-19.741821,41.201782,-33.265686,0.0,0.0,0.0,3
UncalAccel,1764275189821,264212372526382,0.21156311,-0.61157227,10.015579,0.0,0.0,0.0,3
UncalGyro,1764275189824,264212375028824,-0.013824463,-0.0012359619,0.00018310547,-0.015899658,0.0057525635,0.0005493164,3
UncalMag,1764275189836,264212387144302,-20.491028,39.401245,-34.91516,0.0,0.0,0.0,3
UncalAccel,1764275189831,264212382322525,0.24516296,-0.41841125,10.374161,0.0,0.0,0.0,3
UncalGyro,1764275189833,264212384794449,-0.008331299,0.012832642,0.0014038086,-0.015899658,0.0057525635,0.0005493164,3
UncalMag,1764275189845,264212396909927,-20.191956,40.60211,-33.114624,0.0,0.0,0.0,3
UncalAccel,1764275189841,264212392088150,-0.016479492,-0.39456177,9.558334,0.0,0.0,0.0,3
Pressure,1764275189849,264212400785660,974.57117,3
UncalGyro,1764275189843,264212394560074,-0.017486572,-0.00061035156,0.0014038086,-0.015899658,0.0057525635,0.0005493164,3
UncalMag,1764275189855,264212406675552,-20.64209,41.35132,-33.415222,0.0,0.0,0.0,3
UncalAccel,1764275189850,264212401853775,0.055526733,-0.2753296,9.957825,0.0,0.0,0.0,3
UncalGyro,1764275189853,264212404325699,-0.009857178,0.0024414062,-0.0013427734,-0.015899658,0.0057525635,0.0005493164,3
OrientationDeg,1764275189855,264212406706070,26.0,0.0,2.0,3
UncalMag,1764275189865,264212416441177,-21.540833,39.401245,-32.81555,0.0,0.0,0.0,3
UncalAccel,1764275189860,264212411619400,0.27397156,-0.5829468,9.96022,0.0,0.0,0.0,3
UncalGyro,1764275189863,264212414091324,-0.014129639,-0.0036621094,0.0020141602,-0.015899658,0.0057525635,0.0005493164,3
OrientationDeg,1764275189865,264212416471695,26.0,0.0,2.0,3
UncalMag,1764275189875,264212426206802,-21.691895,39.552307,-33.114624,0.0,0.0,0.0,3
UncalAccel,1764275189870,264212421385025,0.16355896,-0.3969574,10.364517,0.0,0.0,0.0,3
UncalGyro,1764275189872,264212423856949,-0.009552002,0.016494751,0.0029296875,-0.015899658,0.0057525635,0.0005493164,3
OrientationDeg,1764275189875,264212426237320,26.0,0.0,2.0,3
UncalMag,1764275189884,264212435972427,-20.040894,40.45105,-34.91516,0.0,0.0,0.0,3
UncalAccel,1764275189880,264212431150650,-0.047683716,-0.27770996,9.546295,0.0,0.0,0.0,3
Pressure,1764275189888,264212439237808,974.57117,3
UncalGyro,1764275189882,264212433622574,-0.01687622,-0.003967285,0.0010986328,-0.015899658,0.0057525635,0.0005493164,3
OrientationDeg,1764275189885,264212436002945,26.0,0.0,2.0,3
UncalMag,1764275189894,264212445738052,-20.191956,40.301514,-32.666016,0.0,0.0,0.0,3
UncalAccel,1764275189889,264212440916275,0.17315674,-0.51856995,9.96022,0.0,0.0,0.0,3
UncalGyro,1764275189892,264212443388199,-0.013519287,-0.0018310547,-0.0007324219,-0.015899658,0.0057525635,0.0005493164,3
OrientationDeg,1764275189894,264212445768570,26.0,0.0,2.0,3
UncalMag,1764275189904,264212455503677,-20.191956,40.301514,-33.865356,0.0,0.0,0.0,3
UncalAccel,1764275189899,264212450681900,0.20915222,-0.45895386,10.171997,0.0,0.0,0.0,3
UncalGyro,1764275189902,264212453153824,-0.008331299,0.008544922,0.0010986328,-0.015899658,0.0057525635,0.0005493164,3
OrientationDeg,1764275189904,264212455534195,26.0,0.0,2.0,3
UncalMag,1764275189914,264212465269302,-20.491028,40.151978,-32.514954,0.0,0.0,0.0,3
UncalAccel,1764275189909,264212460447525,0.06512451,-0.41127014,9.936157,0.0,0.0,0.0,3
UncalGyro,1764275189911,264212462888931,-0.020858765,0.0045776367,0.0026245117,-0.01586914,0.0057678223,0.0005493164,3
OrientationDeg,1764275189914,264212465269302,26.0,0.0,2.0,3
UncalMag,1764275189923,264212474973892,-21.090698,39.701843,-33.71582,0.0,0.0,0.0,3
UncalAccel,1764275189919,264212470152115,-0.03327942,-0.2920227,9.642548,0.0,0.0,0.0,3
Pressure,1764275189926,264212477689956,974.57117,3
UncalGyro,1764275189921,264212472624038,-0.0074157715,-0.0021514893,-0.0007324219,-0.01586914,0.0057678223,0.0005493164,3
OrientationDeg,1764275189924,264212475004410,26.0,0.0,2.0,3
UncalMag,1764275189933,264212484739517,-20.491028,41.201782,-33.71582,0.0,0.0,0.0,3
UncalAccel,1764275189928,264212479917740,0.34599304,-0.5471802,10.058884,0.0,0.0,0.0,3
UncalGyro,1764275189931,264212482389663,-0.014434814,0.0005950928,-0.0007324219,-0.01586914,0.0057678223,0.0005493164,3
OrientationDeg,1764275189933,264212484770035,26.0,0.0,2.0,3
UncalMag,1764275189943,264212494505142,-19.59076,40.301514,-33.114624,0.0,0.0,0.0,3
UncalAccel,1764275189938,264212489683365,0.26916504,-0.5305023,10.285126,0.0,0.0,0.0,3
UncalGyro,1764275189941,264212492155288,-0.013519287,0.012527466,0.003540039,-0.01586914,0.0057678223,0.0005493164,3
OrientationDeg,1764275189943,264212494535660,26.0,0.0,2.0,3
UncalMag,1764275189953,264212504270767,-21.090698,41.201782,-34.165955,0.0,0.0,0.0,3
UncalAccel,1764275189948,264212499448990,-0.1005249,-0.3373413,9.765289,0.0,0.0,0.0,3
UncalGyro,1764275189950,264212501920913,-0.010772705,0.007019043,0.00018310547,-0.01586914,0.0057678223,0.0005493164,3
OrientationDeg,1764275189953,264212504301285,26.0,0.0,2.0,3
UncalMag,1764275189963,264212514036392,-20.191956,40.301514,-33.415222,0.0,0.0,0.0,3
UncalAccel,1764275189958,264212509214615,-0.016494751,-0.37072754,9.786957,0.0,0.0,0.0,3
Pressure,1764275189965,264212516203140,974.57117,3
UncalGyro,1764275189960,264212511686538,-0.020843506,-0.009475708,0.00048828125,-0.01586914,0.0057678223,0.0005493164,3
OrientationDeg,1764275189963,264212514066910,26.0,0.0,2.0,3
UncalMag,1764275189972,264212523802017,-20.491028,41.201782,-33.71582,0.0,0.0,0.0,3
UncalAccel,1764275189967,264212518980240,0.30036926,-0.5614929,10.06131,0.0,0.0,0.0,3
UncalGyro,1764275189970,264212521452163,-0.0101623535,0.0030517578,0.00018310547,-0.01586914,0.0057678223,0.0005493164,3
OrientationDeg,1764275189972,264212523832535,26.0,0.0,2.0,3
UncalMag,1764275189982,264212533567642,-20.64209,40.301514,-34.765625,0.0,0.0,0.0,3
UncalAccel,1764275189977,264212528745865,0.21636963,-0.38264465,10.234573,0.0,0.0,0.0,3
UncalGyro,1764275189980,264212531217788,-0.009857178,0.016479492,0.0041503906,-0.01586914,0.0057678223,0.0005493164,3
OrientationDeg,1764275189982,264212533598160,26.0,0.0,2.0,3
UncalMag,1764275189992,264212543333267,-19.741821,40.45105,-34.165955,0.0,0.0,0.0,3
UncalAccel,1764275189987,264212538511490,-0.040481567,-0.3206482,9.606461,0.0,0.0,0.0,3
UncalGyro,1764275189989,264212540983413,-0.021774292,-0.0070343018,0.0020141602,-0.01586914,0.0057678223,0.0005493164,3
OrientationDeg,1764275189992,264212543363785,26.0,0.0,2.0,3
UncalMag,1764275190002,264212553098892,-19.741821,40.45105,-34.165955,0.0,0.0,0.0,3
UncalAccel,1764275189997,264212548277115,0.07952881,-0.4017334,9.931335,0.0,0.0,0.0,3
Pressure,1764275190003,264212554594253,974.57117,3
UncalGyro,1764275189999,264212550749038,-0.008636475,0.0048828125,-0.0013427734,-0.01586914,0.0057678223,0.0005493164,3
OrientationDeg,1764275190002,264212553129410,26.0,0.0,2.0,3
UncalMag,1764275190011,264212562864517,-20.040894,39.701843,-33.265686,0.0,0.0,0.0,3
UncalAccel,1764275190007,264212558042740,0.29318237,-0.55911255,10.263443,0.0,0.0,0.0,3
UncalGyro,1764275190009,264212560514663,-0.014129639,0.00091552734,0.0010986328,-0.01586914,0.0057678223,0.0005493164,3
OrientationDeg,1764275190011,264212562895035,26.0,0.0,2.0,3
UncalMag,1764275190021,264212572630142,-20.040894,39.701843,-33.265686,0.0,0.0,0.0,3
UncalAccel,1764275190016,264212567808365,0.043533325,-0.3564148,10.032425,0.0,0.0,0.0,3
UncalGyro,1764275190019,264212570280288,-0.015045166,0.010375977,0.0029296875,-0.01586914,0.0057678223,0.0005493164,3
OrientationDeg,1764275190021,264212572660660,26.0,0.0,2.0,3
UncalMag,1764275190031,264212582395767,-21.090698,40.45105,-34.91516,0.0,0.0,0.0,3
UncalAccel,1764275190026,264212577573990,-0.02609253,-0.33970642,9.635345,0.0,0.0,0.0,3
UncalGyro,1764275190029,264212580045913,-0.011077881,-0.0015411377,-0.0007324219,-0.01586914,0.0057678223,0.0005493164,3
OrientationDeg,1764275190031,264212582426285,26.0,0.0,2.0,3
UncalMag,1764275190041,264212592161392,-21.090698,40.45105,-34.91516,0.0,0.0,0.0,3
UncalAccel,1764275190036,264212587339615,0.28356934,-0.5853424,10.085373,0.0,0.0,0.0,3
Pressure,1764275190042,264212593076919,974.5771,3
UncalGyro,1764275190038,264212589811538,-0.013519287,0.000289917,-0.00012207031,-0.01586914,0.0057678223,0.0005493164,3
OrientationDeg,1764275190041,264212592191910,26.0,0.0,2.0,3
UncalMag,1764275190050,264212601927017,-20.040894,40.751648,-34.165955,0.0,0.0,0.0,3
UncalAccel,1764275190046,264212597105240,0.19715881,-0.4923401,10.28511,0.0,0.0,0.0,3
UncalGyro,1764275190048,264212599546646,-0.01260376,0.01159668,0.0026245117,-0.01586914,0.0057678223,0.0005493164,3
OrientationDeg,1764275190050,264212601927017,26.0,0.0,2.0,3
UncalMag,1764275190060,264212611662124,-20.941162,41.052246,-35.51483,0.0,0.0,0.0,3
UncalAccel,1764275190055,264212606840347,-0.06930542,-0.4088745,9.808609,0.0,0.0,0.0,3
UncalGyro,1764275190058,264212609312271,-0.01626587,0.0036621094,0.0010986328,-0.01586914,0.0057678223,0.0005493164,3
OrientationDeg,1764275190060,264212611692642,26.0,0.0,2.0,3
UncalMag,1764275190070,264212621427749,-20.491028,41.201782,-34.165955,0.0,0.0,0.0,3
UncalAccel,1764275190065,264212616605972,-0.038085938,-0.30155945,9.707535,0.0,0.0,0.0,3
UncalGyro,1764275190068,264212619077896,-0.01260376,-0.0061187744,-0.0010375977,-0.01586914,0.0057678223,0.0005493164,3
OrientationDeg,1764275190070,264212621458267,26.0,0.0,2.0,3
UncalMag,1764275190080,264212631193374,-20.191956,41.651917,-33.415222,0.0,0.0,0.0,3
UncalAccel,1764275190075,264212626371597,0.3627777,-0.5734253,10.21051,0.0,0.0,0.0,3
Pressure,1764275190080,264212631834244,974.5771,3
UncalGyro,1764275190077,264212628843521,-0.012298584,0.0015258789,0.00048828125,-0.01586914,0.0057678223,0.0005493164,3
OrientationDeg,1764275190080,264212631223892,26.0,0.0,2.0,3
UncalMag,1764275190089,264212640958999,-20.941162,41.052246,-33.415222,0.0,0.0,0.0,3
UncalAccel,1764275190085,264212636137222,0.14915466,-0.432724,10.193649,0.0,0.0,0.0,3
UncalGyro,1764275190087,264212638609146,-0.011688232,0.0119018555,0.0026397705,-0.01586914,0.0057678223,0.0005493164,3
OrientationDeg,1764275190089,264212640989517,26.0,0.0,2.0,3
UncalMag,1764275190099,264212650724624,-20.64209,41.651917,-34.765625,0.0,0.0,0.0,3
UncalAccel,1764275190094,264212645902847,-0.095718384,-0.2967987,9.782135,0.0,0.0,0.0,3
UncalGyro,1764275190097,264212648374771,-0.01473999,0.00091552734,0.00018310547,-0.01586914,0.0057678223,0.0005493164,3
OrientationDeg,1764275190099,264212650755142,26.0,0.0,2.0,3
UncalMag,1764275190109,264212660490249,-20.040894,41.201782,-34.165955,0.0,0.0,0.0,3
UncalAccel,1764275190104,264212655668472,0.12034607,-0.4780426,9.801392,0.0,0.0,0.0,3
UncalGyro,1764275190107,264212658140396,-0.015350342,-0.0073394775,-0.0007324219,-0.01586914,0.0057678223,0.0005493164,3
OrientationDeg,1764275190109,264212660520767,26.0,0.0,2.0,3
Pressure,1764275190119,264212670042251,974.5771,3
UncalMag,1764275190119,264212670255874,-20.791626,40.45105,-34.165955,0.0,0.0,0.0,3
UncalAccel,1764275190114,264212665434097,0.40359497,-0.56388855,10.251419,0.0,0.0,0.0,3
UncalGyro,1764275190116,264212667906021,-0.0077056885,0.007019043,0.00079345703,-0.01586914,0.0057678223,0.0005493164,3
OrientationDeg,1764275190119,264212670286392,26.0,0.0,2.0,3
UncalMag,1764275190129,264212680021499,-19.140625,40.00244,-33.415222,0.0,0.0,0.0,3
UncalAccel,1764275190124,264212675199722,0.096343994,-0.34210205,9.892838,0.0,0.0,0.0,3
UncalGyro,1764275190126,264212677641128,-0.01473999,0.009765625,0.003250122,-0.01586914,0.0057678223,0.0005493164,3
OrientationDeg,1764275190129,264212680021499,26.0,0.0,2.0,3
UncalMag,1764275190138,264212689756607,-20.941162,40.301514,-33.865356,0.0,0.0,0.0,3
UncalAccel,1764275190133,264212684934829,-0.11251831,-0.30871582,9.676254,0.0,0.0,0.0,3
UncalGyro,1764275190136,264212687406753,-0.014434814,-0.00062561035,-0.0007324219,-0.01586914,0.0057678223,0.0005493164,3
OrientationDeg,1764275190138,264212689787124,26.0,0.0,2.0,3
UncalMag,1764275190148,264212699522232,-20.491028,40.151978,-33.71582,0.0,0.0,0.0,3
UncalAccel,1764275190143,264212694700454,0.18035889,-0.53289795,9.924133,0.0,0.0,0.0,3
UncalGyro,1764275190146,264212697172378,-0.012908936,-0.005203247,0.00018310547,-0.01586914,0.0057678223,0.0005493164,3
OrientationDeg,1764275190148,264212699552749,26.0,0.0,2.0,3
Pressure,1764275190157,264212708982681,974.5771,3
UncalMag,1764275190158,264212709287857,-19.891357,40.301514,-34.31549,0.0,0.0,0.0,3
UncalAccel,1764275190153,264212704466079,0.34838867,-0.48042297,10.496887,0.0,0.0,0.0,3
UncalGyro,1764275190155,264212706938003,-0.011077881,0.010681152,0.0020141602,-0.01586914,0.0057678223,0.0005493164,3
OrientationDeg,1764275190158,264212709318374,26.0,0.0,2.0,3
UncalMag,1764275190168,264212719053482,-20.941162,41.052246,-33.865356,0.0,0.0,0.0,3
UncalAccel,1764275190163,264212714231704,0.02432251,-0.40649414,9.640152,0.0,0.0,0.0,3
UncalGyro,1764275190165,264212716703628,-0.015350342,0.0030517578,0.0029296875,-0.01586914,0.0057678223,0.0005493164,3
OrientationDeg,1764275190168,264212719083999,26.0,0.0,2.0,3
UncalMag,1764275190177,264212728819107,-21.24176,40.60211,-34.31549,0.0,0.0,0.0,3
UncalAccel,1764275190172,264212723997329,0.009933472,-0.30393982,9.938568,0.0,0.0,0.0,3
UncalGyro,1764275190175,264212726469253,-0.011688232,0.007019043,-0.0007324219,-0.01586914,0.0057678223,0.0005493164,3
OrientationDeg,1764275190177,264212728849624,26.0,0.0,2.0,3
UncalMag,1764275190187,264212738584732,-20.040894,41.201782,-33.265686,0.0,0.0,0.0,3
UncalAccel,1764275190182,264212733762954,0.21875,-0.5710449,9.856735,0.0,0.0,0.0,3
UncalGyro,1764275190185,264212736234878,-0.01473999,-0.010696411,0.00079345703,-0.01586914,0.0057678223,0.0005493164,3
OrientationDeg,1764275190187,264212738615249,26.0,0.0,2.0,3
Pressure,1764275190195,264212746854995,974.58014,3
UncalMag,1764275190197,264212748319839,-21.090698,39.701843,-34.165955,0.0,0.0,0.0,3
UncalAccel,1764275190192,264212743498062,0.2331543,-0.4780426,10.362122,0.0,0.0,0.0,3
UncalGyro,1764275190194,264212745969986,-0.010467529,0.019546509,0.003250122,-0.01586914,0.0057678223,0.0005493164,3
OrientationDeg,1764275190197,264212748350357,26.0,0.0,2.0,3
UncalMag,1764275190207,264212758085464,-20.491028,40.751648,-33.265686,0.0,0.0,0.0,3
UncalAccel,1764275190202,264212753263687,-0.038085938,-0.10600281,9.813416,0.0,0.0,0.0,3
OrientationDeg,1764275190207,264212758115982,26.0,0.0,2.0,3
UncalGyro,1764275190204,264212755735611,-0.011993408,-0.0015411377,0.00048828125,-0.01586914,0.0057678223,0.0005493164,3
UncalMag,1764275190216,264212767851089,-20.491028,40.45105,-33.71582,0.0,0.0,0.0,3
UncalAccel,1764275190211,264212762968277,0.18995667,-0.6783447,9.45726,0.0,0.0,0.0,3
UncalGyro,1764275190214,264212765470718,-0.02482605,-0.010696411,0.00018310547,-0.01586914,0.0057678223,0.0005493164,3
OrientationDeg,1764275190216,264212767851089,26.0,0.0,2.0,3
UncalMag,1764275190226,264212777616714,-20.791626,40.151978,-33.71582,0.0,0.0,0.0,3
UncalAccel,1764275190221,264212772794937,0.33158875,-0.34210205,10.672562,0.0,0.0,0.0,3
UncalGyro,1764275190224,264212775297378,0.002670288,0.021377563,-0.00012207031,-0.01586914,0.0057678223,0.0005493164,3
OrientationDeg,1764275190226,264212777677749,26.0,0.0,2.0,3
Pressure,1764275190234,264212785337661,974.58014,3
UncalMag,1764275190236,264212787412857,-20.191956,41.651917,-33.415222,0.0,0.0,0.0,3
UncalAccel,1764275190231,264212782591079,0.089141846,-0.4804077,9.577576,0.0,0.0,0.0,3
UncalGyro,1764275190234,264212785063003,-0.028182983,-0.00642395,0.0010986328,-0.01586914,0.0057678223,0.0005493164,3
OrientationDeg,1764275190236,264212787443374,26.0,0.0,2.0,3
UncalMag,1764275190246,264212797178482,-20.040894,41.201782,-34.165955,0.0,0.0,0.0,3
UncalAccel,1764275190241,264212792356704,-0.02128601,-0.10600281,10.027603,0.0,0.0,0.0,3
UncalGyro,1764275190243,264212794828628,-0.0046691895,0.014968872,0.00018310547,-0.01586914,0.0057678223,0.0005493164,3
OrientationDeg,1764275190246,264212797208999,26.0,0.0,2.0,3
UncalMag,1764275190255,264212806944107,-20.040894,39.701843,-33.71582,0.0,0.0,0.0,3
UncalAccel,1764275190251,264212802122329,0.19236755,-0.14178467,9.8038025,0.0,0.0,0.0,3
UncalGyro,1764275190253,264212804594253,-0.008026123,-0.017105103,-0.0028686523,-0.01586914,0.0057678223,0.0005493164,3
OrientationDeg,1764275190255,264212806974624,26.0,0.0,2.0,3
UncalMag,1764275190265,264212816709732,-19.59076,40.00244,-33.865356,0.0,0.0,0.0,3
UncalAccel,1764275190260,264212811887954,0.46600342,-0.07977295,10.28511,0.0,0.0,0.0,3
UncalGyro,1764275190263,264212814359878,-0.015670776,0.0033569336,0.00018310547,-0.01586914,0.0057678223,0.0005493164,3
OrientationDeg,1764275190265,264212816740249,26.0,0.0,2.0,3
Pressure,1764275190272,264212823759292,974.58014,3
UncalMag,1764275190275,264212826475357,-21.24176,40.60211,-33.865356,0.0,0.0,0.0,3
UncalAccel,1764275190270,264212821653579,0.1083374,0.20878601,9.953003,0.0,0.0,0.0,3
UncalGyro,1764275190273,264212824125503,-0.0007019043,0.017700195,0.00048828125,-0.01586914,0.0057678223,0.0005493164,3
OrientationDeg,1764275190275,264212826505874,26.0,0.0,2.0,3
UncalMag,1764275190285,264212836240982,-20.191956,40.60211,-33.114624,0.0,0.0,0.0,3
UncalAccel,1764275190280,264212831419204,-0.006881714,0.13723755,9.435608,0.0,0.0,0.0,3
UncalGyro,1764275190282,264212833891128,-0.015045166,-0.012527466,-0.0040893555,-0.01586914,0.0057678223,0.0005493164,3
OrientationDeg,1764275190285,264212836271499,26.0,0.0,2.0,3
UncalMag,1764275190295,264212846006607,-20.191956,41.052246,-33.865356,0.0,0.0,0.0,3
UncalAccel,1764275190290,264212841184829,0.2835846,-0.032089233,10.001129,0.0,0.0,0.0,3
UncalGyro,1764275190292,264212843656753,-0.002532959,-0.0051879883,-0.0040893555,-0.01586914,0.0057678223,0.0005493164,3
OrientationDeg,1764275190295,264212846037124,26.0,0.0,2.0,3
UncalMag,1764275190304,264212855772232,-19.741821,40.45105,-34.165955,0.0,0.0,0.0,3
UncalAccel,1764275190299,264212850950454,0.20915222,-0.12509155,10.07814,0.0,0.0,0.0,3
UncalGyro,1764275190302,264212853422378,0.0005187988,0.010070801,-0.0007324219,-0.01586914,0.0057678223,0.0005493164,3
OrientationDeg,1764275190304,264212855802749,26.0,0.0,2.0,3
Pressure,1764275190311,264212862211441,974.58014,3
UncalMag,1764275190314,264212865537857,-21.090698,40.751648,-33.265686,0.0,0.0,0.0,3
UncalAccel,1764275190309,264212860716079,-0.02368164,0.14201355,9.685867,0.0,0.0,0.0,3
UncalGyro,1764275190312,264212863188003,-0.009552002,0.0030517578,-0.0022583008,-0.01586914,0.0057678223,0.0005493164,3
OrientationDeg,1764275190314,264212865568374,26.0,0.0,2.0,3
UncalMag,1764275190324,264212875303482,-20.040894,40.751648,-33.265686,0.0,0.0,0.0,3
UncalAccel,1764275190319,264212870481704,0.07473755,0.0466156,9.702728,0.0,0.0,0.0,3
UncalGyro,1764275190321,264212872953628,0.0008392334,-0.0116119385,-0.0065307617,-0.01586914,0.0057678223,0.0005493164,3
OrientationDeg,1764275190324,264212875333999,26.0,0.0,2.0,3
UncalMag,1764275190334,264212885069107,-18.841553,41.052246,-33.114624,0.0,0.0,0.0,3
UncalAccel,1764275190329,264212880247329,0.35079956,-0.008239746,10.039642,0.0,0.0,0.0,3
UncalGyro,1764275190331,264212882688736,0.001449585,0.0051879883,-0.0040893555,-0.01586914,0.0057678223,0.0005493164,3
OrientationDeg,1764275190334,264212885069107,26.0,0.0,2.0,3
UncalMag,1764275190343,264212894804214,-19.741821,39.701843,-33.265686,0.0,0.0,0.0,3
UncalAccel,1764275190338,264212889982437,0.23556519,0.0823822,10.123871,0.0,0.0,0.0,3
UncalGyro,1764275190341,264212892423843,-0.0043640137,0.013122559,-0.003479004,-0.01586914,0.0057678223,0.0005493164,3
OrientationDeg,1764275190343,264212894804214,26.0,0.0,2.0,3
Pressure,1764275190349,264212900694107,974.58984,3
UncalMag,1764275190353,264212904539322,-20.191956,39.552307,-34.31549,0.0,0.0,0.0,3
UncalAccel,1764275190348,264212899717544,-0.03327942,0.27078247,9.471695,0.0,0.0,0.0,3
OrientationDeg,1764275190353,264212904569839,26.0,0.0,2.0,3
UncalGyro,1764275190351,264212902189468,0.001449585,-0.0030517578,-0.0056152344,-0.01586914,0.0057678223,0.0005493164,3
UncalMag,1764275190363,264212914304947,-20.64209,41.052246,-33.415222,0.0,0.0,0.0,3
UncalAccel,1764275190358,264212909483169,0.17796326,0.14915466,9.977066,0.0,0.0,0.0,3
UncalGyro,1764275190360,264212911955093,-0.00038146973,0.008544922,-0.00592041,-0.01586914,0.0057678223,0.0005493164,3
OrientationDeg,1764275190363,264212914335464,26.0,0.0,2.0,3
UncalMag,1764275190373,264212924070572,-19.891357,41.052246,-34.31549,0.0,0.0,0.0,3
UncalAccel,1764275190368,264212919248794,0.19236755,-0.12747192,10.082962,0.0,0.0,0.0,3
UncalGyro,1764275190370,264212921720718,-0.0016174316,-0.00030517578,-0.00592041,-0.01586914,0.0057678223,0.0005493164,3
OrientationDeg,1764275190373,264212924101089,26.0,0.0,2.0,3
UncalMag,1764275190382,264212933836197,-19.441223,41.201782,-33.265686,0.0,0.0,0.0,3
UncalAccel,1764275190378,264212929014419,0.14674377,0.14439392,9.9722595,0.0,0.0,0.0,3
UncalGyro,1764275190380,264212931486343,0.0023651123,0.0146484375,-0.004699707,-0.01586914,0.0057678223,0.0005493164,3
OrientationDeg,1764275190382,264212933866714,26.0,0.0,2.0,3
Pressure,1764275190388,264212939329361,974.58984,3
UncalMag,1764275190392,264212943601822,-20.791626,41.201782,-34.165955,0.0,0.0,0.0,3
UncalAccel,1764275190387,264212938780044,0.045928955,0.23739624,9.707535,0.0,0.0,0.0,3
UncalGyro,1764275190390,264212941251968,-0.0007019043,-0.0033721924,-0.004699707,-0.01586914,0.0057678223,0.0005493164,3
OrientationDeg,1764275190392,264212943632339,26.0,0.0,2.0,3
UncalMag,1764275190402,264212953367447,-20.191956,41.052246,-34.31549,0.0,0.0,0.0,3
UncalAccel,1764275190397,264212948545669,0.22836304,0.10623169,10.056488,0.0,0.0,0.0,3
UncalGyro,1764275190400,264212951017593,0.00022888184,0.0048828125,-0.0068359375,-0.01586914,0.0057678223,0.0005493164,3
OrientationDeg,1764275190402,264212953397964,26.0,0.0,2.0,3
UncalMag,1764275190412,264212963133072,-20.491028,41.201782,-34.165955,0.0,0.0,0.0,3
UncalAccel,1764275190407,264212958311294,0.1923523,0.01083374,10.309174,0.0,0.0,0.0,3
UncalGyro,1764275190409,264212960752701,0.00022888184,0.010375977,-0.0040893555,-0.01586914,0.0057678223,0.0005493164,3
OrientationDeg,1764275190412,264212963133072,26.0,0.0,2.0,3
UncalMag,1764275190421,264212972868179,-20.791626,41.801453,-33.71582,0.0,0.0,0.0,3
UncalAccel,1764275190417,264212968046402,-0.009277344,0.13008118,9.798981,0.0,0.0,0.0,3
Pressure,1764275190426,264212977567886,974.58984,3
UncalGyro,1764275190419,264212970518326,-0.0028381348,0.002746582,-0.0022583008,-0.01586914,0.0057678223,0.0005493164,3
OrientationDeg,1764275190421,264212972898697,26.0,0.0,2.0,3
UncalMag,1764275190431,264212982633804,-22.590637,41.201782,-34.165955,0.0,0.0,0.0,3
UncalAccel,1764275190426,264212977812027,0.07472229,0.38763428,10.054077,0.0,0.0,0.0,3
UncalGyro,1764275190429,264212980283951,-0.000091552734,0.0048828125,-0.0065307617,-0.01586914,0.0057678223,0.0005493164,3
OrientationDeg,1764275190431,264212982664322,26.0,0.0,2.0,3
UncalMag,1764275190441,264212992399429,-20.791626,41.201782,-35.365295,0.0,0.0,0.0,3
UncalAccel,1764275190436,264212987577652,0.2619629,0.029922485,9.993927,0.0,0.0,0.0,3
UncalGyro,1764275190439,264212990049576,-0.0019226074,-0.009170532,-0.0043945312,-0.01586914,0.0057678223,0.0005493164,3
OrientationDeg,1764275190441,264212992429947,26.0,0.0,2.0,3
UncalMag,1764275190451,264213002165054,-20.191956,41.052246,-33.415222,0.0,0.0,0.0,3
UncalAccel,1764275190446,264212997343277,0.15875244,0.08000183,10.477631,0.0,0.0,0.0,3
UncalGyro,1764275190448,264212999815201,-0.0013122559,0.027175903,-0.001953125,-0.01586914,0.0057678223,0.0005493164,3
OrientationDeg,1764275190451,264213002195572,26.0,0.0,2.0,3
UncalMag,1764275190460,264213011930679,-19.59076,41.052246,-34.31549,0.0,0.0,0.0,3
UncalAccel,1764275190456,264213007108902,-0.03327942,0.25886536,9.868774,0.0,0.0,0.0,3
Pressure,1764275190465,264213016020035,974.58984,3
UncalGyro,1764275190458,264213009580826,-0.005279541,-0.017105103,-0.0043945312,-0.01586914,0.0057678223,0.0005493164,3
OrientationDeg,1764275190460,264213011961197,26.0,0.0,2.0,3
UncalMag,1764275190470,264213021696304,-20.040894,40.45105,-32.81555,0.0,0.0,0.0,3
UncalAccel,1764275190465,264213016874527,0.2259674,0.29463196,9.904877,0.0,0.0,0.0,3
UncalGyro,1764275190468,264213019346451,-0.0022277832,0.003967285,-0.0028686523,-0.01586914,0.0057678223,0.0005493164,3
OrientationDeg,1764275190470,264213021726822,26.0,0.0,2.0,3
UncalMag,1764275190480,264213031461929,-21.090698,41.201782,-32.81555,0.0,0.0,0.0,3
UncalAccel,1764275190475,264213026640152,0.27397156,0.010848999,10.532974,0.0,0.0,0.0,3
UncalGyro,1764275190478,264213029112076,-0.00680542,0.016494751,-0.0007324219,-0.01586914,0.0057678223,0.0005493164,3
OrientationDeg,1764275190480,264213031492447,26.0,0.0,2.0,3
UncalMag,1764275190490,264213041197036,-21.990967,40.60211,-33.865356,0.0,0.0,0.0,3
UncalAccel,1764275190485,264213036375259,-0.054901123,0.13723755,10.005951,0.0,0.0,0.0,3
UncalGyro,1764275190487,264213038847183,-0.0046691895,-0.011001587,-0.003479004,-0.01586914,0.0057678223,0.0005493164,3
OrientationDeg,1764275190490,264213041227554,26.0,0.0,2.0,3
UncalMag,1764275190499,264213050962661,-19.891357,41.052246,-33.865356,0.0,0.0,0.0,3
UncalAccel,1764275190495,264213046140884,0.007522583,0.3852539,9.94339,0.0,0.0,0.0,3
Pressure,1764275190503,264213054472183,974.58875,3
UncalGyro,1764275190497,264213048612808,-0.0077209473,0.008239746,-0.0031738281,-0.01586914,0.0057678223,0.0005493164,3
OrientationDeg,1764275190499,264213050993179,26.0,0.0,2.0,3
UncalMag,1764275190509,264213060728286,-19.891357,40.60211,-35.064697,0.0,0.0,0.0,3
UncalAccel,1764275190504,264213055906509,0.32199097,0.09907532,10.131088,0.0,0.0,0.0,3
UncalGyro,1764275190507,264213058378433,-0.009552002,-0.014053345,-0.0037841797,-0.01586914,0.0057678223,0.0005493164,3
OrientationDeg,1764275190509,264213060758804,26.0,0.0,2.0,3
UncalMag,1764275190519,264213070493911,-19.891357,40.301514,-33.865356,0.0,0.0,0.0,3
UncalAccel,1764275190514,264213065672134,0.28356934,0.060928345,10.405426,0.0,0.0,0.0,3
UncalGyro,1764275190517,264213068144058,-0.0061950684,0.020462036,-0.0025634766,-0.01586914,0.0057678223,0.0005493164,3
OrientationDeg,1764275190519,264213070524429,26.0,0.0,2.0,3
UncalMag,1764275190529,264213080259536,-21.691895,40.60211,-33.865356,0.0,0.0,0.0,3
UncalAccel,1764275190524,264213075437759,-0.10050964,0.18969727,10.162384,0.0,0.0,0.0,3
UncalGyro,1764275190526,264213077909683,-0.008636475,-0.00030517578,-0.0025634766,-0.01586914,0.0057678223,0.0005493164,3
OrientationDeg,1764275190529,264213080290054,26.0,0.0,2.0,3
UncalMag,1764275190539,264213090025161,-19.741821,40.151978,-34.165955,0.0,0.0,0.0,3
UncalAccel,1764275190534,264213085203384,-0.02848816,0.30418396,9.818237,0.0,0.0,0.0,3
Pressure,1764275190541,264213092954849,974.58875,3
UncalGyro,1764275190536,264213087675308,-0.012298584,-0.005203247,-0.0053100586,-0.01586914,0.0057678223,0.0005493164,3
OrientationDeg,1764275190539,264213090055679,26.0,0.0,2.0,3
UncalAccel,1764275190543,264213094969009,0.33158875,0.09429932,10.40303,0.0,0.0,0.0,3
UncalMag,1764275190548,264213099790786,-20.64209,40.301514,-34.31549,0.0,0.0,0.0,3
UncalGyro,1764275190546,264213097440933,-0.0101623535,0.0024414062,-0.0053100586,-0.01586914,0.0057678223,0.0005493164,3
OrientationDeg,1764275190548,264213099821304,26.0,0.0,2.0,3
UncalMag,1764275190558,264213109556411,-18.991089,41.201782,-34.165955,0.0,0.0,0.0,3
UncalAccel,1764275190553,264213104734634,0.1923523,0.04421997,10.224945,0.0,0.0,0.0,3
UncalGyro,1764275190556,264213107206558,-0.010772705,0.003967285,-0.0031738281,-0.01586914,0.0057678223,0.0005493164,3
OrientationDeg,1764275190558,264213109586929,27.0,0.0,2.0,3
UncalMag,1764275190568,264213119322036,-21.24176,41.35132,-35.51483,0.0,0.0,0.0,3
UncalAccel,1764275190563,264213114500259,0.01953125,0.32086182,9.991516,0.0,0.0,0.0,3
OrientationDeg,1764275190568,264213119352554,27.0,0.0,2.0,3
UncalGyro,1764275190565,264213116972183,-0.013519287,0.009155273,-0.00592041,-0.01586914,0.0057678223,0.0005493164,3
UncalMag,1764275190578,264213129087661,-21.24176,41.35132,-35.51483,0.0,0.0,0.0,3
UncalAccel,1764275190573,264213124265884,0.096343994,0.1634674,9.847122,0.0,0.0,0.0,3
Pressure,1764275190580,264213131376480,974.58875,3
UncalGyro,1764275190575,264213126737808,-0.015655518,-0.01008606,-0.007446289,-0.01586914,0.0057678223,0.0005493164,3
OrientationDeg,1764275190578,264213129118179,27.0,0.0,2.0,3
UncalMag,1764275190587,264213138853286,-19.891357,40.301514,-33.865356,0.0,0.0,0.0,3
UncalAccel,1764275190583,264213134031509,0.2619629,-0.027328491,10.410248,0.0,0.0,0.0,3
UncalGyro,1764275190585,264213136503433,-0.011383057,0.012207031,-0.0068359375,-0.01586914,0.0057678223,0.0005493164,3
OrientationDeg,1764275190587,264213138883804,27.0,0.0,2.0,3
Raw,1764275189651,133140414000000,,,-1448177267237569110,0.23232460021972656,4181.4204305410385,7.791650761854069,10.956208957670771,2789,14,0.0,207,84389573451642,21,26.6,-541.0916748046875,0.4702000021934509,0,0.0,0.0,1598062460,,,,0,,3,0.55,,,,,,,,,,,,,,,,,,,,,,,,
Raw,1764275189651,133140414000000,,,-1448177267237569110,0.23232460021972656,4181.4204305410385,7.791650761854069,10.956208957670771,2789,22,0.0,207,84389581719247,12,32.5,-109.3193130493164,0.2800000011920929,0,0.0,0.0,1600312450,,,,0,,3,0.55,,,,,,,,,,,,,,,,,,,,,,,,
Raw,1764275189651,133140414000000,,,-1448177267237569110,0.23232460021972656,4181.4204305410385,7.791650761854069,10.956208957670771,2789,12,0.0,207,84389582467840,14,30.6,322.8257751464844,0.29649999737739563,0,0.0,0.0,1601437440,,,,0,,3,0.55,,,,,,,,,,,,,,,,,,,,,,,,
Raw,1764275189651,133140414000000,,,-1448177267237569110,0.23232460021972656,4181.4204305410385,7.791650761854069,10.956208957670771,2789,23,0.0,207,84389579616311,19,27.4,-653.3077392578125,0.3922000229358673,0,0.0,0.0,1603687550,,,,0,,3,0.55,,,,,,,,,,,,,,,,,,,,,,,,
Raw,1764275189651,133140414000000,,,-1448177267237569110,0.23232460021972656,4181.4204305410385,7.791650761854069,10.956208957670771,2789,3,0.0,207,84389581557018,9,35.6,264.8612976074219,0.26600000262260437,0,0.0,0.0,1604812540,,,,0,,3,0.55,,,,,,,,,,,,,,,,,,,,,,,,
Raw,1764275189651,133140414000000,,,-1448177267237569110,0.23232460021972656,4181.4204305410385,7.791650761854069,10.956208957670771,2789,4,0.0,207,84389576923588,9,35.0,-396.07928466796875,0.25850000977516174,0,0.0,0.0,1605374980,,,,0,,3,0.55,,,,,,,,,,,,,,,,,,,,,,,,
Raw,1764275189651,133140414000000,,,-1448177267237569110,0.23232460021972656,4181.4204305410385,7.791650761854069,10.956208957670771,2789,4,0.0,15,419207574233541,17,28.9,690.1818237304688,0.11840000003576279,0,0.0,0.0,1575420030,,,,0,,1,1.86,,,,,,,,,,,,,,,,,,,,,,,,
Raw,1764275189651,133140414000000,,,-1448177267237569110,0.23232460021972656,4181.4204305410385,7.791650761854069,10.956208957670771,2789,7,0.0,15,419207579495384,11,33.6,-401.0674133300781,0.07170000672340393,0,0.0,0.0,1575420030,,,,0,,1,1.86,,,,,,,,,,,,,,,,,,,,,,,,
Raw,1764275189651,133140414000000,,,-1448177267237569110,0.23232460021972656,4181.4204305410385,7.791650761854069,10.956208957670771,2789,8,0.0,15,419207585063030,14,30.9,-56.4002799987793,0.07100000232458115,0,0.0,0.0,1575420030,,,,0,,1,1.86,,,,,,,,,,,,,,,,,,,,,,,,
Raw,1764275189651,133140414000000,,,-1448177267237569110,0.23232460021972656,4181.4204305410385,7.791650761854069,10.956208957670771,2789,9,0.0,15,419207580107935,12,32.7,432.17230224609375,0.07850000262260437,0,0.0,0.0,1575420030,,,,0,,1,1.86,,,,,,,,,,,,,,,,,,,,,,,,
Raw,1764275189651,133140414000000,,,-1448177267237569110,0.23232460021972656,4181.4204305410385,7.791650761854069,10.956208957670771,2789,14,0.0,15,419207567239208,27,24.7,-546.7803344726562,0.612000048160553,0,0.0,0.0,1575420030,,,,0,,1,1.86,,,,,,,,,,,,,,,,,,,,,,,,
Raw,1764275189651,133140414000000,,,-1448177267237569110,0.23232460021972656,4181.4204305410385,7.791650761854069,10.956208957670771,2789,16,0.0,15,419207574978647,16,29.9,587.5159301757812,0.09539999812841415,0,0.0,0.0,1575420030,,,,0,,1,1.86,,,,,,,,,,,,,,,,,,,,,,,,
Raw,1764275189651,133140414000000,,,-1448177267237569110,0.23232460021972656,4181.4204305410385,7.791650761854069,10.956208957670771,2789,27,0.0,15,419207581603179,10,34.5,369.15740966796875,0.07010000199079514,0,0.0,0.0,1575420030,,,,0,,1,1.86,,,,,,,,,,,,,,,,,,,,,,,,
Raw,1764275189651,133140414000000,,,-1448177267237569110,0.23232460021972656,4181.4204305410385,7.791650761854069,10.956208957670771,2789,30,0.0,15,419207573836179,16,29.4,-581.1854248046875,0.09389999508857727,0,0.0,0.0,1575420030,,,,0,,1,1.86,,,,,,,,,,,,,,,,,,,,,,,,
UncalMag,1764275190597,264213148618911,-19.891357,40.301514,-33.865356,0.0,0.0,0.0,3
UncalAccel,1764275190592,264213143797134,0.10594177,0.06806946,10.220123,0.0,0.0,0.0,3
UncalGyro,1764275190595,264213146269058,-0.014129639,0.0036621094,-0.00592041,-0.01586914,0.0057678223,0.0005493164,3
Status,,18,0,1,4,1575420030,28.90,184.0,23.0,1,1,0,
Status,,18,1,1,7,1575420030,33.60,309.0,54.0,1,1,0,
Status,,18,2,1,8,1575420030,30.90,125.0,73.0,1,1,1,
Status,,18,3,1,9,1575420030,32.70,223.0,44.0,1,1,0,
Status,,18,4,1,14,1575420030,24.70,258.0,3.0,0,1,0,
Status,,18,5,1,16,1575420030,29.90,63.0,26.0,1,1,0,
Status,,18,6,1,27,1575420030,34.50,59.0,50.0,1,1,0,
Status,,18,7,1,30,1575420030,29.40,305.0,26.0,1,1,0,
Status,,18,8,1,2,1575420030,0.00,144.0,13.0,1,1,0,
Status,,18,9,1,18,1575420030,0.00,0.0,0.0,0,1,0,
Status,,18,10,1,21,1575420030,0.00,0.0,0.0,0,1,0,
Status,,18,11,3,14,1602000000,26.60,284.0,11.0,1,1,0,
Status,,18,12,3,22,1602000000,32.50,78.0,39.0,1,1,0,
Status,,18,13,3,12,1602000000,30.60,54.0,43.0,1,1,0,
Status,,18,14,3,23,1602000000,27.40,132.0,30.0,0,1,0,
Status,,18,15,3,3,1602000000,35.60,270.0,38.0,1,1,1,
Status,,18,16,3,4,1602000000,35.00,324.0,21.0,0,1,0,
Status,,18,17,3,21,1602000000,0.00,21.0,9.0,1,1,0,
UncalMag,1764275190607,264213158384536,-19.891357,41.35132,-34.765625,0.0,0.0,0.0,3
UncalAccel,1764275190602,264213153562759,0.009933472,0.27078247,9.904861,0.0,0.0,0.0,3
OrientationDeg,1764275190597,264213148649429,27.0,0.0,2.0,3
Fix,GPS,41.4232234900,-81.4758804700,307.930419921875,0.0,3.216,,1764275190000,0.086023256,,264213154550133,4.0,,,,
UncalGyro,1764275190605,264213156034683,-0.015655518,0.000289917,-0.008972168,-0.01586914,0.0057678223,0.0005493164,3
OrientationDeg,1764275190607,264213158415054,27.0,0.0,2.0,3
Fix,FLP,41.4232235000,-81.4758805000,312.4949084123096,0.0,3.216,,1764275190603,0.086023256,,264213154550133,1.8999262,,,,
UncalMag,1764275190617,264213168150161,-19.891357,41.35132,-34.765625,0.0,0.0,0.0,3
UncalAccel,1764275190612,264213163328384,0.2403717,0.07046509,9.972275,0.0,0.0,0.0,3
Pressure,1764275190618,264213169920181,974.58875,3
UncalGyro,1764275190614,264213165800308,-0.01626587,-0.0048980713,-0.010818481,-0.01586914,0.0057678223,0.0005493164,3
OrientationDeg,1764275190617,264213168180679,27.0,0.0,2.0,3
UncalMag,1764275190626,264213177915786,-20.64209,40.60211,-34.31549,0.0,0.0,0.0,3
UncalAccel,1764275190622,264213173094009,0.3219757,-0.0034637451,10.383774,0.0,0.0,0.0,3
UncalGyro,1764275190624,264213175535415,-0.013824463,0.010986328,-0.008972168,-0.01586914,0.0057678223,0.0005493164,3
OrientationDeg,1764275190626,264213177915786,27.0,0.0,2.0,3
UncalMag,1764275190636,264213187650894,-20.941162,40.60211,-34.765625,0.0,0.0,0.0,3
UncalAccel,1764275190631,264213182829117,0.029129028,0.091918945,9.974655,0.0,0.0,0.0,3
UncalGyro,1764275190634,264213185301040,-0.017791748,0.00579834,-0.007751465,-0.01586914,0.0057678223,0.0005493164,3
OrientationDeg,1764275190636,264213187681411,27.0,0.0,2.0,3
UncalMag,1764275190646,264213197416519,-19.891357,41.052246,-33.415222,0.0,0.0,0.0,3
UncalAccel,1764275190641,264213192594742,0.005126953,0.28985596,9.753265,0.0,0.0,0.0,3
UncalGyro,1764275190644,264213195066665,-0.015655518,-0.0021514893,-0.011123657,-0.01586914,0.0057678223,0.0005493164,3
OrientationDeg,1764275190646,264213197447036,27.0,0.0,2.0,3
UncalMag,1764275190656,264213207182144,-21.24176,40.60211,-33.415222,0.0,0.0,0.0,3
UncalAccel,1764275190651,264213202360367,0.32917786,0.03945923,10.150345,0.0,0.0,0.0,3
Pressure,1764275190657,264213208280777,974.5929,3
UncalGyro,1764275190653,264213204832290,-0.01687622,-0.00091552734,-0.011123657,-0.01586914,0.0057678223,0.0005493164,3
OrientationDeg,1764275190656,264213207212661,27.0,0.0,2.0,3
UncalMag,1764275190665,264213216947769,-21.990967,39.552307,-33.415222,0.0,0.0,0.0,3
UncalAccel,1764275190661,264213212125992,0.2811737,-0.08215332,10.21051,0.0,0.0,0.0,3
UncalGyro,1764275190663,264213214597915,-0.014434814,0.0048828125,-0.009902954,-0.01586914,0.0057678223,0.0005493164,3
OrientationDeg,1764275190665,264213216978286,27.0,0.0,2.0,3
UncalMag,1764275190675,264213226713394,-20.191956,41.052246,-33.865356,0.0,0.0,0.0,3
UncalAccel,1764275190670,264213221891617,0.048339844,0.2374115,9.904861,0.0,0.0,0.0,3
UncalGyro,1764275190673,264213224363540,-0.015975952,0.010986328,-0.011413574,-0.01586914,0.0057678223,0.0005493164,3
OrientationDeg,1764275190675,264213226743911,27.0,0.0,2.0,3
UncalMag,1764275190685,264213236479019,-19.891357,40.60211,-33.865356,0.0,0.0,0.0,3
UncalAccel,1764275190680,264213231657242,0.103530884,0.28271484,9.83989,0.0,0.0,0.0,3
UncalGyro,1764275190683,264213234129165,-0.015045166,-0.0116119385,-0.011734009,-0.01586914,0.0057678223,0.0005493164,3
OrientationDeg,1764275190685,264213236509536,27.0,0.0,2.0,3
UncalMag,1764275190695,264213246214126,-19.741821,41.201782,-34.165955,0.0,0.0,0.0,3
UncalAccel,1764275190690,264213241392349,0.3939972,-0.08932495,10.090179,0.0,0.0,0.0,3
Pressure,1764275190695,264213246885513,974.5929,3
UncalGyro,1764275190692,264213243864273,-0.017791748,0.006713867,-0.011123657,-0.01586914,0.0057678223,0.0005493164,3
OrientationDeg,1764275190695,264213246244644,27.0,0.0,2.0,3
UncalAccel,1764275190700,264213251096939,0.22355652,0.10383606,10.31398,0.0,0.0,0.0,3
UncalMag,1764275190704,264213255979751,-21.090698,40.151978,-33.71582,0.0,0.0,0.0,3
UncalGyro,1764275190702,264213253599380,-0.013214111,0.015579224,-0.009292603,-0.01586914,0.0057678223,0.0005493164,3
OrientationDeg,1764275190704,264213255979751,27.0,0.0,2.0,3
UncalAccel,1764275190709,264213260923599,-0.02368164,0.26364136,9.490952,0.0,0.0,0.0,3
UncalMag,1764275190714,264213265745376,-19.741821,41.50238,-33.265686,0.0,0.0,0.0,3
UncalGyro,1764275190712,264213263395523,-0.015670776,-0.009780884,-0.011123657,-0.01586914,0.0057678223,0.0005493164,3
OrientationDeg,1764275190714,264213265775894,27.0,0.0,2.0,3
UncalMag,1764275190724,264213275511001,-21.691895,39.552307,-33.865356,0.0,0.0,0.0,3
UncalAccel,1764275190719,264213270689224,0.24516296,0.12054443,10.039642,0.0,0.0,0.0,3
UncalGyro,1764275190722,264213273161148,-0.018417358,0.010681152,-0.011734009,-0.01586914,0.0057678223,0.0005493164,3
OrientationDeg,1764275190724,264213275541519,27.0,0.0,2.0,3
Pressure,1764275190734,264213285185074,974.5929,3
UncalMag,1764275190734,264213285276626,-20.040894,40.45105,-33.71582,0.0,0.0,0.0,3
UncalAccel,1764275190729,264213280454849,0.30278015,0.03945923,10.157562,0.0,0.0,0.0,3
UncalGyro,1764275190731,264213282926773,-0.010772705,-0.0036773682,-0.010803223,-0.01586914,0.0057678223,0.0005493164,3
OrientationDeg,1764275190734,264213285307144,27.0,0.0,2.0,3
UncalMag,1764275190744,264213295042251,-20.791626,40.751648,-33.71582,0.0,0.0,0.0,3
UncalAccel,1764275190739,264213290220474,0.13475037,0.11578369,9.90007,0.0,0.0,0.0,3
UncalGyro,1764275190741,264213292692398,-0.015960693,0.013427734,-0.009887695,-0.01586914,0.0057678223,0.0005493164,3
OrientationDeg,1764275190744,264213295072769,27.0,0.0,2.0,3
UncalMag,1764275190753,264213304807876,-19.140625,40.60211,-34.765625,0.0,0.0,0.0,3
UncalAccel,1764275190748,264213299986099,0.055526733,0.22546387,9.890427,0.0,0.0,0.0,3
UncalGyro,1764275190751,264213302458023,-0.013519287,0.0036621094,-0.0095825195,-0.01586914,0.0057678223,0.0005493164,3
OrientationDeg,1764275190753,264213304838394,27.0,0.0,2.0,3
UncalMag,1764275190763,264213314573501,-20.791626,40.151978,-33.265686,0.0,0.0,0.0,3
UncalAccel,1764275190758,264213309751724,0.29077148,0.020385742,9.820648,0.0,0.0,0.0,3
UncalGyro,1764275190761,264213312223648,-0.012908936,-0.0036773682,-0.011123657,-0.01586914,0.0057678223,0.0005493164,3
OrientationDeg,1764275190763,264213314604019,27.0,0.0,2.0,3
Pressure,1764275190772,264213323637222,974.5929,3
UncalMag,1764275190773,264213324339126,-20.491028,41.201782,-33.71582,0.0,0.0,0.0,3
UncalAccel,1764275190768,264213319517349,0.27157593,-0.02015686,10.359711,0.0,0.0,0.0,3
UncalGyro,1764275190770,264213321989273,-0.011077881,0.0146484375,-0.009887695,-0.01586914,0.0057678223,0.0005493164,3
OrientationDeg,1764275190773,264213324369644,27.0,0.0,2.0,3
UncalMag,1764275190783,264213334104751,-19.741821,40.751648,-34.165955,0.0,0.0,0.0,3
UncalAccel,1764275190778,264213329282974,-0.030899048,0.21592712,9.6979065,0.0,0.0,0.0,3
UncalGyro,1764275190780,264213331754898,-0.010772705,-0.00091552734,-0.009902954,-0.01586914,0.0057678223,0.0005493164,3
OrientationDeg,1764275190783,264213334135269,27.0,0.0,2.0,3
UncalMag,1764275190792,264213343870376,-20.191956,40.60211,-34.31549,0.0,0.0,0.0,3
UncalAccel,1764275190788,264213339048599,0.10594177,0.20640564,9.729202,0.0,0.0,0.0,3
UncalGyro,1764275190790,264213341520523,-0.017181396,0.0048828125,-0.012039185,-0.01586914,0.0057678223,0.0005493164,3
OrientationDeg,1764275190792,264213343900894,27.0,0.0,2.0,3
UncalMag,1764275190802,264213353636001,-20.491028,39.701843,-33.71582,0.0,0.0,0.0,3
UncalAccel,1764275190797,264213348814224,0.33639526,-0.07501221,10.244186,0.0,0.0,0.0,3
UncalGyro,1764275190800,264213351286148,-0.011077881,-0.00062561035,-0.011428833,-0.01586914,0.0057678223,0.0005493164,3
OrientationDeg,1764275190802,264213353666519,27.0,0.0,2.0,3
Pressure,1764275190811,264213362119888,974.5968,3
UncalMag,1764275190812,264213363401626,-20.941162,40.301514,-34.765625,0.0,0.0,0.0,3
UncalAccel,1764275190807,264213358579849,0.18515015,-0.029708862,9.974655,0.0,0.0,0.0,3
UncalGyro,1764275190810,264213361051773,-0.011993408,0.014953613,-0.008361816,-0.01586914,0.0057678223,0.0005493164,3
OrientationDeg,1764275190812,264213363432144,27.0,0.0,2.0,3
UncalMag,1764275190822,264213373167251,-20.040894,40.751648,-34.165955,0.0,0.0,0.0,3
UncalAccel,1764275190817,264213368345474,-0.011688232,0.20401001,9.969849,0.0,0.0,0.0,3
UncalGyro,1764275190819,264213370817398,-0.013824463,0.008850098,-0.011734009,-0.01586914,0.0057678223,0.0005493164,3
OrientationDeg,1764275190822,264213373197769,27.0,0.0,2.0,3
UncalMag,1764275190831,264213382932876,-19.441223,40.751648,-33.71582,0.0,0.0,0.0,3
UncalAccel,1764275190827,264213378111099,0.1083374,0.07524109,9.5920105,0.0,0.0,0.0,3
UncalGyro,1764275190829,264213380583023,-0.013824463,-0.014663696,-0.0135650635,-0.01586914,0.0057678223,0.0005493164,3
OrientationDeg,1764275190831,264213382963394,27.0,0.0,2.0,3
UncalMag,1764275190841,264213392698501,-20.491028,40.45105,-34.465027,0.0,0.0,0.0,3
UncalAccel,1764275190836,264213387876724,0.33877563,-0.041610718,10.448761,0.0,0.0,0.0,3
UncalGyro,1764275190839,264213390348648,-0.009246826,0.01802063,-0.01234436,-0.01586914,0.0057678223,0.0005493164,3
OrientationDeg,1764275190841,264213392729019,27.0,0.0,2.0,3
Pressure,1764275190849,264213400541519,974.5968,3
UncalMag,1764275190851,264213402464126,-20.64209,41.35132,-33.865356,0.0,0.0,0.0,3
UncalAccel,1764275190846,264213397642349,0.1083374,0.06329346,9.907272,0.0,0.0,0.0,3
UncalGyro,1764275190849,264213400114273,-0.014129639,0.0,-0.0095825195,-0.01586914,0.0057678223,0.0005493164,3
OrientationDeg,1764275190851,264213402494644,27.0,0.0,2.0,3
UncalMag,1764275190861,264213412229751,-20.191956,41.35132,-33.114624,0.0,0.0,0.0,3
UncalAccel,1764275190856,264213407407974,0.02192688,0.16824341,9.774933,0.0,0.0,0.0,3
UncalGyro,1764275190858,264213409879898,-0.013824463,0.0073242188,-0.012039185,-0.01586914,0.0057678223,0.0005493164,3
OrientationDeg,1764275190861,264213412260269,27.0,0.0,2.0,3
UncalMag,1764275190870,264213421995376,-20.791626,40.751648,-34.165955,0.0,0.0,0.0,3
UncalAccel,1764275190866,264213417173599,0.24276733,0.056152344,10.04686,0.0,0.0,0.0,3
UncalGyro,1764275190868,264213419645523,-0.00894165,-0.0024414062,-0.014480591,-0.01586914,0.0057678223,0.0005493164,3
OrientationDeg,1764275190871,264213422025894,27.0,0.0,2.0,3
UncalMag,1764275190880,264213431761001,-20.64209,41.052246,-34.31549,0.0,0.0,0.0,3
UncalAccel,1764275190875,264213426939224,0.28596497,-0.14654541,10.191254,0.0,0.0,0.0,3
UncalGyro,1764275190878,264213429411148,-0.015350342,0.008239746,-0.011413574,-0.01586914,0.0057678223,0.0005493164,3
OrientationDeg,1764275190880,264213431791519,27.0,0.0,2.0,3
Pressure,1764275190887,264213438993667,974.5968,3
UncalMag,1764275190890,264213441526626,-20.791626,41.50238,-34.465027,0.0,0.0,0.0,3
UncalAccel,1764275190885,264213436704849,-0.05731201,0.18255615,10.082962,0.0,0.0,0.0,3
UncalGyro,1764275190888,264213439176773,-0.005279541,0.011291504,-0.014175415,-0.01586914,0.0057678223,0.0005493164,3
OrientationDeg,1764275190890,264213441557144,27.0,0.0,2.0,3
UncalMag,1764275190900,264213451292251,-21.090698,40.45105,-33.265686,0.0,0.0,0.0,3
UncalAccel,1764275190895,264213446470474,0.041122437,0.17538452,9.620895,0.0,0.0,0.0,3
UncalGyro,1764275190897,264213448942398,-0.017486572,-0.0116119385,-0.015701294,-0.01586914,0.0057678223,0.0005493164,3
OrientationDeg,1764275190900,264213451322769,27.0,0.0,2.0,3
UncalMag,1764275190910,264213461057876,-20.191956,40.60211,-34.31549,0.0,0.0,0.0,3
UncalAccel,1764275190905,264213456236099,0.32917786,-0.034469604,10.294739,0.0,0.0,0.0,3
UncalGyro,1764275190907,264213458677505,-0.009552002,0.0061035156,-0.014785767,-0.01586914,0.0057678223,0.0005493164,3
OrientationDeg,1764275190910,264213461057876,27.0,0.0,2.0,3
UncalMag,1764275190919,264213470762466,-20.941162,40.301514,-33.865356,0.0,0.0,0.0,3
UncalAccel,1764275190914,264213465940689,0.27157593,-0.05114746,10.114243,0.0,0.0,0.0,3
UncalGyro,1764275190917,264213468412613,-0.010772705,0.010070801,-0.0135650635,-0.01586914,0.0057678223,0.0005493164,3
OrientationDeg,1764275190919,264213470792984,27.0,0.0,2.0,3
Pressure,1764275190926,264213477445816,974.5968,3
UncalMag,1764275190929,264213480528091,-20.191956,42.401123,-33.114624,0.0,0.0,0.0,3
UncalAccel,1764275190924,264213475706314,-0.050094604,0.2374115,9.953003,0.0,0.0,0.0,3
UncalGyro,1764275190927,264213478178238,-0.012298584,0.0064086914,-0.014465332,-0.0158844,0.0057525635,0.0005493164,3
OrientationDeg,1764275190929,264213480558609,27.0,0.0,2.0,3
OrientationDeg,1764275190939,264213490324234,27.0,0.0,2.0,3
OrientationDeg,1764275190949,264213500089859,27.0,0.0,2.0,3
UncalMag,1764275190939,264213490293716,-20.191956,40.60211,-33.865356,0.0,0.0,0.0,3
UncalAccel,1764275190934,264213485471939,0.057937622,0.10383606,9.736404,0.0,0.0,0.0,3
UncalGyro,1764275190936,264213487943863,-0.013214111,-0.0058135986,-0.017837524,-0.0158844,0.0057525635,0.0005493164,3
UncalMag,1764275190949,264213500059341,-20.791626,40.751648,-33.265686,0.0,0.0,0.0,3
UncalAccel,1764275190944,264213495237564,0.33398438,0.0036773682,10.282715,0.0,0.0,0.0,3
UncalGyro,1764275190946,264213497709488,-0.009552002,0.004272461,-0.016921997,-0.0158844,0.0057525635,0.0005493164,3
UncalMag,1764275190958,264213509824966,-20.191956,39.552307,-35.064697,0.0,0.0,0.0,3
UncalAccel,1764275190954,264213505003189,0.24276733,0.04421997,10.104614,0.0,0.0,0.0,3
UncalGyro,1764275190956,264213507475113,-0.01260376,0.010986328,-0.014175415,-0.0158844,0.0057525635,0.0005493164,3
Pressure,1764275190964,264213515928482,974.5968,3
OrientationDeg,1764275190958,264213509855484,27.0,0.0,2.0,3
UncalMag,1764275190968,264213519590591,-21.090698,39.701843,-32.514954,0.0,0.0,0.0,3
UncalAccel,1764275190963,264213514768814,0.00032043457,0.1968689,9.861557,0.0,0.0,0.0,3
UncalGyro,1764275190966,264213517240738,-0.01260376,0.0076293945,-0.016921997,-0.0158844,0.0057525635,0.0005493164,3
OrientationDeg,1764275190968,264213519621109,27.0,0.0,2.0,3
UncalMag,1764275190978,264213529325699,-20.191956,40.301514,-33.865356,0.0,0.0,0.0,3
UncalAccel,1764275190973,264213524503921,0.137146,0.13961792,10.020386,0.0,0.0,0.0,3
UncalGyro,1764275190975,264213526975845,-0.009246826,-0.0015411377,-0.0181427,-0.0158844,0.0057525635,0.0005493164,3
OrientationDeg,1764275190978,264213529356216,27.0,0.0,2.0,3
UncalMag,1764275190988,264213539091324,-21.540833,40.151978,-34.465027,0.0,0.0,0.0,3
UncalAccel,1764275190983,264213534269546,0.36039734,-0.098861694,10.340454,0.0,0.0,0.0,3
UncalGyro,1764275190985,264213536741470,-0.015960693,0.007019043,-0.016921997,-0.0158844,0.0057525635,0.0005493164,3
OrientationDeg,1764275190988,264213539121841,27.0,0.0,2.0,3
UncalMag,1764275190997,264213548856949,-20.791626,39.701843,-33.71582,0.0,0.0,0.0,3
UncalAccel,1764275190993,264213544035171,0.17555237,0.20640564,9.969864,0.0,0.0,0.0,3
UncalGyro,1764275190995,264213546507095,-0.0074157715,0.012817383,-0.015396118,-0.0158844,0.0057525635,0.0005493164,3
Pressure,1764275191003,264213554380630,974.60486,3
OrientationDeg,1764275190997,264213548887466,27.0,0.0,2.0,3
UncalMag,1764275191007,264213558622574,-21.84143,39.401245,-34.91516,0.0,0.0,0.0,3
UncalAccel,1764275191002,264213553800796,0.00032043457,0.25646973,9.794174,0.0,0.0,0.0,3
UncalGyro,1764275191005,264213556272720,-0.015960693,0.0061035156,-0.017227173,-0.0158844,0.0057525635,0.0005493164,3
OrientationDeg,1764275191007,264213558653091,27.0,0.0,2.0,3
UncalMag,1764275191017,264213568388199,-20.64209,40.60211,-33.865356,0.0,0.0,0.0,3
UncalAccel,1764275191012,264213563566421,0.18756104,0.025161743,10.001129,0.0,0.0,0.0,3
UncalGyro,1764275191015,264213566038345,-0.011383057,-0.005203247,-0.017532349,-0.0158844,0.0057525635,0.0005493164,3
OrientationDeg,1764275191017,264213568418716,27.0,0.0,2.0,3
UncalMag,1764275191027,264213578153824,-20.64209,40.301514,-35.964966,0.0,0.0,0.0,3
UncalAccel,1764275191022,264213573332046,0.28837585,0.048980713,10.333252,0.0,0.0,0.0,3
UncalGyro,1764275191024,264213575803970,-0.011383057,0.019241333,-0.01600647,-0.0158844,0.0057525635,0.0005493164,3
OrientationDeg,1764275191027,264213578184341,27.0,0.0,2.0,3
UncalMag,1764275191036,264213587919449,-21.24176,42.10205,-34.31549,0.0,0.0,0.0,3
UncalAccel,1764275191032,264213583097671,0.0819397,0.13723755,9.897659,0.0,0.0,0.0,3
Pressure,1764275191041,264213592802261,974.60486,3
UncalGyro,1764275191034,264213585569595,-0.017791748,-0.0018310547,-0.016616821,-0.0158844,0.0057525635,0.0005493164,3
OrientationDeg,1764275191036,264213587949966,27.0,0.0,2.0,3
UncalMag,1764275191046,264213597685074,-20.941162,40.60211,-33.865356,0.0,0.0,0.0,3
UncalAccel,1764275191041,264213592863296,0.103530884,0.1873169,9.731613,0.0,0.0,0.0,3
UncalGyro,1764275191044,264213595335220,-0.009857178,0.0048828125,-0.018447876,-0.0158844,0.0057525635,0.0005493164,3
OrientationDeg,1764275191046,264213597715591,27.0,0.0,2.0,3
UncalAccel,1764275191051,264213602598404,0.295578,-0.08215332,10.2827,0.0,0.0,0.0,3
UncalMag,1764275191056,264213607420181,-19.891357,39.552307,-33.865356,0.0,0.0,0.0,3
UncalGyro,1764275191054,264213605070328,-0.015350342,0.006713867,-0.016616821,-0.0158844,0.0057525635,0.0005493164,3
OrientationDeg,1764275191056,264213607450699,27.0,0.0,2.0,3
UncalMag,1764275191066,264213617185806,-20.191956,41.052246,-34.31549,0.0,0.0,0.0,3
UncalAccel,1764275191061,264213612364029,0.07714844,0.0823822,10.022781,0.0,0.0,0.0,3
UncalGyro,1764275191063,264213614835953,-0.013214111,0.004272461,-0.016921997,-0.0158844,0.0057525635,0.0005493164,3
OrientationDeg,1764275191066,264213617216324,27.0,0.0,2.0,3
UncalMag,1764275191075,264213626951431,-20.040894,40.751648,-34.465027,0.0,0.0,0.0,3
UncalAccel,1764275191071,264213622129654,-0.030883789,0.28987122,9.835083,0.0,0.0,0.0,3
Pressure,1764275191080,264213631254410,974.60486,3
UncalGyro,1764275191073,264213624601578,-0.011077881,0.009765625,-0.017837524,-0.0158844,0.0057525635,0.0005493164,3
OrientationDeg,1764275191075,264213626981949,27.0,0.0,2.0,3
UncalMag,1764275191085,264213636717056,-19.741821,40.151978,-32.514954,0.0,0.0,0.0,3
UncalAccel,1764275191080,264213631895279,0.14915466,-0.005844116,9.794174,0.0,0.0,0.0,3
UncalGyro,1764275191083,264213634367203,-0.022079468,-0.005203247,-0.017837524,-0.0158844,0.0057525635,0.0005493164,3
OrientationDeg,1764275191085,264213636747574,27.0,0.0,2.0,3
UncalMag,1764275191095,264213646482681,-20.941162,40.60211,-34.31549,0.0,0.0,0.0,3
UncalAccel,1764275191090,264213641660904,0.3075714,-0.041625977,10.422287,0.0,0.0,0.0,3
UncalGyro,1764275191093,264213644132828,-0.0071105957,0.012512207,-0.017837524,-0.0158844,0.0057525635,0.0005493164,3
OrientationDeg,1764275191095,264213646513199,27.0,0.0,2.0,3
UncalMag,1764275191105,264213656248306,-19.741821,41.201782,-34.165955,0.0,0.0,0.0,3
UncalAccel,1764275191100,264213651426529,0.13233948,-0.015380859,9.873596,0.0,0.0,0.0,3
UncalGyro,1764275191102,264213653898453,-0.0184021,0.009155273,-0.015701294,-0.0158844,0.0057525635,0.0005493164,3
OrientationDeg,1764275191105,264213656278824,27.0,0.0,2.0,3
UncalMag,1764275191115,264213666013931,-20.491028,40.151978,-33.71582,0.0,0.0,0.0,3
UncalAccel,1764275191110,264213661192154,-0.045288086,0.24694824,9.924133,0.0,0.0,0.0,3
Pressure,1764275191118,264213669889663,974.60486,3
UncalGyro,1764275191112,264213663664078,-0.013824463,0.00793457,-0.017837524,-0.0158844,0.0057525635,0.0005493164,3
OrientationDeg,1764275191115,264213666044449,27.0,0.0,2.0,3
UncalMag,1764275191124,264213675779556,-20.64209,40.00244,-33.415222,0.0,0.0,0.0,3
UncalAccel,1764275191119,264213670957779,0.098739624,-0.05354309,9.88562,0.0,0.0,0.0,3
UncalGyro,1764275191122,264213673429703,-0.018096924,-0.003967285,-0.019363403,-0.0158844,0.0057525635,0.0005493164,3
OrientationDeg,1764275191124,264213675810074,27.0,0.0,2.0,3
UncalMag,1764275191134,264213685545181,-21.090698,40.751648,-34.165955,0.0,0.0,0.0,3
UncalAccel,1764275191129,264213680723404,0.2667694,-0.08454895,10.422287,0.0,0.0,0.0,3
UncalGyro,1764275191132,264213683195328,-0.012298584,0.0116119385,-0.01600647,-0.0158844,0.0057525635,0.0005493164,3
OrientationDeg,1764275191134,264213685575699,27.0,0.0,2.0,3
UncalMag,1764275191144,264213695310806,-21.090698,40.751648,-34.165955,0.0,0.0,0.0,3
UncalAccel,1764275191139,264213690489029,0.07473755,0.1133728,9.849533,0.0,0.0,0.0,3
UncalGyro,1764275191141,264213692960953,-0.01902771,0.01159668,-0.016616821,-0.0158844,0.0057525635,0.0005493164,3
OrientationDeg,1764275191144,264213695341324,27.0,0.0,2.0,3
UncalMag,1764275191154,264213705076431,-21.090698,39.401245,-34.465027,0.0,0.0,0.0,3
UncalAccel,1764275191149,264213700254654,0.07473755,0.034698486,9.815826,0.0,0.0,0.0,3
Pressure,1764275191157,264213708433365,974.6007,3
UncalGyro,1764275191151,264213702726578,-0.01626587,-0.0061187744,-0.019363403,-0.0158844,0.0057525635,0.0005493164,3
OrientationDeg,1764275191154,264213705106949,27.0,0.0,2.0,3
UncalMag,1764275191163,264213714842056,-21.090698,39.401245,-34.465027,0.0,0.0,0.0,3
UncalAccel,1764275191159,264213710020279,0.2403717,-0.02015686,10.128677,0.0,0.0,0.0,3
UncalGyro,1764275191161,264213712492203,-0.01260376,0.0116119385,-0.018447876,-0.0158844,0.0057525635,0.0005493164,3
OrientationDeg,1764275191163,264213714872574,27.0,0.0,2.0,3
UncalMag,1764275191173,264213724607681,-20.791626,39.701843,-33.71582,0.0,0.0,0.0,3
UncalAccel,1764275191168,264213719785904,0.2043457,-0.20140076,10.157562,0.0,0.0,0.0,3
UncalGyro,1764275191171,264213722257828,-0.022369385,0.004272461,-0.015701294,-0.0158844,0.0057525635,0.0005493164,3
OrientationDeg,1764275191173,264213724638199,27.0,0.0,2.0,3
UncalMag,1764275191183,264213734373306,-20.791626,39.701843,-33.71582,0.0,0.0,0.0,3
UncalAccel,1764275191178,264213729551529,-0.09811401,0.122924805,9.762878,0.0,0.0,0.0,3
UncalGyro,1764275191181,264213732023453,-0.010467529,0.009460449,-0.017532349,-0.0158844,0.0057525635,0.0005493164,3
OrientationDeg,1764275191183,264213734403824,27.0,0.0,2.0,3
UncalMag,1764275191193,264213744138931,-21.090698,41.201782,-33.71582,0.0,0.0,0.0,3
UncalAccel,1764275191188,264213739317154,0.14434814,-0.055923462,9.88562,0.0,0.0,0.0,3
Pressure,1764275191195,264213746610855,974.6007,3
