# 
# Header Description:
# 
# Version: v3.1.1.1 Platform: 10 Manufacturer: Google Model: Pixel 2 XL GNSS Hardware Model Name: 
# 
# Raw,utcTimeMillis,TimeNanos,LeapSecond,TimeUncertaintyNanos,FullBiasNanos,BiasNanos,BiasUncertaintyNanos,DriftNanosPerSecond,DriftUncertaintyNanosPerSecond,HardwareClockDiscontinuityCount,Svid,TimeOffsetNanos,State,ReceivedSvTimeNanos,ReceivedSvTimeUncertaintyNanos,Cn0DbHz,PseudorangeRateMetersPerSecond,PseudorangeRateUncertaintyMetersPerSecond,AccumulatedDeltaRangeState,AccumulatedDeltaRangeMeters,AccumulatedDeltaRangeUncertaintyMeters,CarrierFrequencyHz,CarrierCycles,CarrierPhase,CarrierPhaseUncertainty,MultipathIndicator,SnrInDb,ConstellationType,AgcDb,BasebandCn0DbHz,FullInterSignalBiasNanos,FullInterSignalBiasUncertaintyNanos,SatelliteInterSignalBiasNanos,SatelliteInterSignalBiasUncertaintyNanos,CodeType,ChipsetElapsedRealtimeNanos,IsFullTracking,SvPositionEcefXMeters,SvPositionEcefYMeters,SvPositionEcefZMeters,SvVelocityEcefXMetersPerSecond,SvVelocityEcefYMetersPerSecond,SvVelocityEcefZMetersPerSecond,SvClockBiasMeters,SvClockDriftMetersPerSecond,KlobucharAlpha0,KlobucharAlpha1,KlobucharAlpha2,KlobucharAlpha3,KlobucharBeta0,KlobucharBeta1,KlobucharBeta2,KlobucharBeta3
# 
# UncalAccel,utcTimeMillis,elapsedRealtimeNanos,UncalAccelXMps2,UncalAccelYMps2,UncalAccelZMps2,BiasXMps2,BiasYMps2,BiasZMps2,CalibrationAccuracy
# 
# Accel,utcTimeMillis,elapsedRealtimeNanos,AccelXMps2,AccelYMps2,AccelZMps2,CalibrationAccuracy
# 
# UncalGyro,utcTimeMillis,elapsedRealtimeNanos,UncalGyroXRadPerSec,UncalGyroYRadPerSec,UncalGyroZRadPerSec,DriftXRadPerSec,DriftYRadPerSec,DriftZRadPerSec,CalibrationAccuracy
# 
# Gyro,utcTimeMillis,elapsedRealtimeNanos,GyroXRadPerSec,GyroYRadPerSec,GyroZRadPerSec,CalibrationAccuracy
# 
# UncalMag,utcTimeMillis,elapsedRealtimeNanos,UncalMagXMicroT,UncalMagYMicroT,UncalMagZMicroT,BiasXMicroT,BiasYMicroT,BiasZMicroT,CalibrationAccuracy
# 
# Mag,utcTimeMillis,elapsedRealtimeNanos,MagXMicroT,MagYMicroT,MagZMicroT,CalibrationAccuracy
# 
# Pressure,utcTimeMillis,elapsedRealtimeNanos,PressureHpa,CalibrationAccuracy
# 
# OrientationDeg,utcTimeMillis,elapsedRealtimeNanos,yawDeg,rollDeg,pitchDeg,CalibrationAccuracy
# 
# Fix,Provider,LatitudeDegrees,LongitudeDegrees,AltitudeMeters,SpeedMps,AccuracyMeters,BearingDegrees,UnixTimeMillis,SpeedAccuracyMps,BearingAccuracyDegrees,elapsedRealtimeNanos,VerticalAccuracyMeters,MockLocation,NumberOfUsedSignals,VerticalSpeedAccuracyMps,SolutionType
# 
# Nav,Svid,Type,Status,MessageId,Sub-messageId,Data(Bytes)
# 
# Status,UnixTimeMillis,SignalCount,SignalIndex,ConstellationType,Svid,CarrierFrequencyHz,Cn0DbHz,AzimuthDegrees,ElevationDegrees,UsedInFix,HasAlmanacData,HasEphemerisData,BasebandCn0DbHz
# 
# Agc,utcTimeMillis,TimeNanos,LeapSecond,TimeUncertaintyNanos,FullBiasNanos,BiasNanos,BiasUncertaintyNanos,DriftNanosPerSecond,DriftUncertaintyNanosPerSecond,HardwareClockDiscontinuityCount,AgcDb,CarrierFrequencyHz,ConstellationType
# 
UncalAccel,1764275003468,264026019713835,0.5068054,-0.45419312,10.783264,0.0,0.0,0.0,3
UncalGyro,1764275003466,264026017302947,-0.022994995,-0.15730286,-0.0016479492,-0.016418457,0.005783081,0.00039672852,3
UncalAccel,1764275003478,264026029418425,0.1227417,-0.46372986,9.457245,0.0,0.0,0.0,3
UncalGyro,1764275003476,264026027007537,0.0741272,0.1426239,-0.0025634766,-0.016418457,0.005783081,0.00039672852,3
UncalMag,1764275003483,264026034301238,-22.7417,40.301514,-34.31549,0.0,0.0,0.0,3
Fix,FLP,41.4232237000,-81.4758928000,312.0602044707598,0.0,3.216,,1764275002607,0.14212671,,264025158612343,1.9029429,,,,
UncalMag,1764275003497,264026048980193,-20.191956,41.651917,-33.865356,0.0,0.0,0.0,3
UncalMag,1764275003507,264026058623748,-20.941162,40.60211,-33.865356,0.0,0.0,0.0,3
UncalAccel,1764275003502,264026053801970,0.10594177,-0.34687805,9.247879,0.0,0.0,0.0,3
Pressure,1764275003510,264026061675505,974.79865,3
UncalMag,1764275003517,264026068480925,-20.941162,40.00244,-35.064697,0.0,0.0,0.0,3
UncalAccel,1764275003512,264026063659148,0.3795929,-0.5853424,10.299545,0.0,0.0,0.0,3
UncalMag,1764275003527,264026078246550,-21.84143,39.701843,-33.71582,0.0,0.0,0.0,3
UncalAccel,1764275003522,264026073424773,0.057937622,-0.3611908,10.280304,0.0,0.0,0.0,3
UncalGyro,1764275003520,264026071013884,-0.03062439,-0.0143585205,0.004760742,-0.016418457,0.005783081,0.00039672852,3
UncalMag,1764275003537,264026088012175,-21.84143,40.151978,-34.91516,0.0,0.0,0.0,3
UncalAccel,1764275003532,264026083190398,-0.11012268,-0.2753296,9.522232,0.0,0.0,0.0,3
UncalGyro,1764275003529,264026080779509,-0.014450073,0.018325806,0.0014038086,-0.016418457,0.005783081,0.00039672852,3
UncalMag,1764275003546,264026097777800,-20.191956,41.052246,-33.865356,0.0,0.0,0.0,3
UncalAccel,1764275003541,264026092956023,0.32437134,-0.46609497,9.981873,0.0,0.0,0.0,3
UncalGyro,1764275003539,264026090545134,-0.00894165,-0.011917114,-0.0013427734,-0.016418457,0.005783081,0.00039672852,3
Pressure,1764275003549,264026100127654,974.7094,3
UncalMag,1764275003556,264026107543425,-21.24176,41.651917,-34.765625,0.0,0.0,0.0,3
UncalAccel,1764275003551,264026102721648,0.31958008,-0.5305023,10.265854,0.0,0.0,0.0,3
UncalGyro,1764275003549,264026100310759,-0.02053833,0.0033569336,0.0010986328,-0.016418457,0.005783081,0.00039672852,3
UncalMag,1764275003566,264026117309050,-20.941162,40.301514,-33.114624,0.0,0.0,0.0,3
UncalAccel,1764275003561,264026112487273,-0.10290527,-0.35401917,9.965042,0.0,0.0,0.0,3
UncalGyro,1764275003559,264026110076384,-0.0077209473,0.017105103,0.0032348633,-0.016418457,0.005783081,0.00039672852,3
UncalMag,1764275003576,264026127044158,-20.491028,40.151978,-32.514954,0.0,0.0,0.0,3
UncalAccel,1764275003571,264026122222380,0.045928955,-0.28248596,9.553513,0.0,0.0,0.0,3
UncalGyro,1764275003568,264026119811492,-0.016571045,-0.0015258789,0.00018310547,-0.016418457,0.005783081,0.00039672852,3
OrientationDeg,1764275003571,264026122191863,27.0,0.0,2.0,3
UncalMag,1764275003585,264026136779265,-21.84143,39.701843,-32.81555,0.0,0.0,0.0,3
UncalAccel,1764275003580,264026131957488,0.4059906,-0.67596436,10.12146,0.0,0.0,0.0,3
UncalGyro,1764275003578,264026129546599,-0.02116394,-0.010696411,-0.00012207031,-0.016418457,0.005783081,0.00039672852,3
OrientationDeg,1764275003580,264026131926970,27.0,0.0,2.0,3
Pressure,1764275003587,264026138701873,974.7094,3
UncalMag,1764275003595,264026146544890,-21.24176,39.552307,-33.415222,0.0,0.0,0.0,3
UncalAccel,1764275003590,264026141723113,0.13233948,-0.44703674,10.321213,0.0,0.0,0.0,3
UncalGyro,1764275003588,264026139312224,-0.00680542,0.014038086,0.0038604736,-0.016418457,0.005783081,0.00039672852,3
OrientationDeg,1764275003590,264026141692595,27.0,0.0,2.0,3
Raw,1764275002632,132953306000000,,,-1448177267326812208,0.3756837844848633,4177.924245595932,-2.9027375112263236,7.018277144300324,2612,14,0.0,207,84202554356862,27,24.6,-545.5427856445312,0.872499942779541,0,0.0,0.0,1598062460,,,,0,,3,-0.3,,,,,,,,,,,,,,,,,,,,,,,,
Raw,1764275002632,132953306000000,,,-1448177267326812208,0.3756837844848633,4177.924245595932,-2.9027375112263236,7.018277144300324,2612,22,0.0,207,84202562884675,6,39.1,-143.10536193847656,0.2249000072479248,0,0.0,0.0,1600312450,,,,0,,3,-0.3,,,,,,,,,,,,,,,,,,,,,,,,
Raw,1764275002632,132953306000000,,,-1448177267326812208,0.3756837844848633,4177.924245595932,-2.9027375112263236,7.018277144300324,2612,12,0.0,207,84202563909884,9,35.7,311.8140563964844,0.23900000751018524,0,0.0,0.0,1601437440,,,,0,,3,-0.3,,,,,,,,,,,,,,,,,,,,,,,,
Raw,1764275002632,132953306000000,,,-1448177267326812208,0.3756837844848633,4177.924245595932,-2.9027375112263236,7.018277144300324,2612,23,0.0,207,84202560446513,14,30.0,-673.3432006835938,0.29350000619888306,0,0.0,0.0,1603687550,,,,0,,3,-0.3,,,,,,,,,,,,,,,,,,,,,,,,
Raw,1764275002632,132953306000000,,,-1448177267326812208,0.3756837844848633,4177.924245595932,-2.9027375112263236,7.018277144300324,2612,21,0.0,207,84202553917901,27,24.7,585.1582641601562,0.8709999918937683,0,0.0,0.0,1604249980,,,,0,,3,-0.3,,,,,,,,,,,,,,,,,,,,,,,,
Raw,1764275002632,132953306000000,,,-1448177267326812208,0.3756837844848633,4177.924245595932,-2.9027375112263236,7.018277144300324,2612,3,0.0,207,84202562956193,13,31.7,232.27322387695312,0.2581000030040741,0,0.0,0.0,1604812540,,,,0,,3,-0.3,,,,,,,,,,,,,,,,,,,,,,,,
Raw,1764275002632,132953306000000,,,-1448177267326812208,0.3756837844848633,4177.924245595932,-2.9027375112263236,7.018277144300324,2612,4,0.0,207,84202557911244,9,35.3,-425.5923767089844,0.2600000202655792,0,0.0,0.0,1605374980,,,,0,,3,-0.3,,,,,,,,,,,,,,,,,,,,,,,,
Raw,1764275002632,132953306000000,,,-1448177267326812208,0.3756837844848633,4177.924245595932,-2.9027375112263236,7.018277144300324,2612,4,0.0,15,419020555905044,17,28.9,680.2938232421875,0.11990000307559967,0,0.0,0.0,1575420030,,,,0,,1,0.96,,,,,,,,,,,,,,,,,,,,,,,,
Raw,1764275002632,132953306000000,,,-1448177267326812208,0.3756837844848633,4177.924245595932,-2.9027375112263236,7.018277144300324,2612,7,0.0,15,419020560485629,14,30.5,-412.29742431640625,0.09350000321865082,0,0.0,0.0,1575420030,,,,0,,1,0.96,,,,,,,,,,,,,,,,,,,,,,,,
Raw,1764275002632,132953306000000,,,-1448177267326812208,0.3756837844848633,4177.924245595932,-2.9027375112263236,7.018277144300324,2612,9,0.0,15,419020561614856,11,33.4,410.46990966796875,0.0747000053524971,0,0.0,0.0,1575420030,,,,0,,1,0.96,,,,,,,,,,,,,,,,,,,,,,,,
Raw,1764275002632,132953306000000,,,-1448177267326812208,0.3756837844848633,4177.924245595932,-2.9027375112263236,7.018277144300324,2612,16,0.0,15,419020556587492,13,31.8,581.8790283203125,0.07909999787807465,0,0.0,0.0,1575420030,,,,0,,1,0.96,,,,,,,,,,,,,,,,,,,,,,,,
Raw,1764275002632,132953306000000,,,-1448177267326812208,0.3756837844848633,4177.924245595932,-2.9027375112263236,7.018277144300324,2612,27,0.0,15,419020563069980,8,36.6,344.765380859375,0.03500000014901161,0,0.0,0.0,1575420030,,,,0,,1,0.96,,,,,,,,,,,,,,,,,,,,,,,,
Raw,1764275002632,132953306000000,,,-1448177267326812208,0.3756837844848633,4177.924245595932,-2.9027375112263236,7.018277144300324,2612,30,0.0,15,419020554715771,19,27.4,-587.3914184570312,0.18470001220703125,0,0.0,0.0,1575420030,,,,0,,1,0.96,,,,,,,,,,,,,,,,,,,,,,,,
OrientationDeg,1764275003600,264026151458220,27.0,0.0,2.0,3
OrientationDeg,1764275003610,264026161223845,27.0,0.0,2.0,3
UncalMag,1764275003605,264026156310515,-21.24176,40.00244,-34.31549,0.0,0.0,0.0,3
UncalAccel,1764275003600,264026151488738,-0.17253113,-0.23478699,9.712341,0.0,0.0,0.0,3
UncalGyro,1764275003598,264026149077849,-0.012908936,0.0143585205,0.0029296875,-0.016403198,0.005783081,0.00039672852,3
UncalMag,1764275003615,264026166076140,-21.691895,40.00244,-32.666016,0.0,0.0,0.0,3
UncalAccel,1764275003610,264026161254363,0.2403717,-0.4804077,9.801392,0.0,0.0,0.0,3
UncalGyro,1764275003607,264026158843474,-0.023910522,-0.017105103,-0.0025634766,-0.016403198,0.005783081,0.00039672852,3
Status,,18,0,1,4,1575420030,28.90,184.0,26.0,1,1,0,
Status,,18,1,1,7,1575420030,30.50,309.0,52.0,1,1,0,
Status,,18,2,1,9,1575420030,33.40,226.0,46.0,1,1,0,
Status,,18,3,1,16,1575420030,31.80,61.0,28.0,1,1,0,
Status,,18,4,1,27,1575420030,36.60,61.0,52.0,1,1,0,
Status,,18,5,1,30,1575420030,27.40,305.0,23.0,1,1,0,
Status,,18,6,1,2,1575420030,0.00,146.0,11.0,0,1,0,
Status,,18,7,1,14,1575420030,0.00,257.0,2.0,0,1,0,
Status,,18,8,1,18,1575420030,0.00,0.0,0.0,0,1,0,
Status,,18,9,1,21,1575420030,0.00,300.0,1.0,0,1,0,
Status,,18,10,3,14,1602000000,24.60,282.0,10.0,1,1,0,
Status,,18,11,3,22,1602000000,39.10,80.0,39.0,1,1,0,
Status,,18,12,3,12,1602000000,35.70,53.0,44.0,1,1,0,
Status,,18,13,3,23,1602000000,30.00,133.0,30.0,0,1,0,
Status,,18,14,3,21,1602000000,24.70,22.0,10.0,1,1,0,
Status,,18,15,3,3,1602000000,31.70,272.0,39.0,1,1,1,
Status,,18,16,3,4,1602000000,35.30,326.0,20.0,0,1,0,
Status,,18,17,3,2,1602000000,0.00,209.0,18.0,0,1,0,
Fix,GPS,41.4232250200,-81.4758923200,310.243896484375,0.0,3.216,,1764275003000,0.1360147,,264026155828119,4.0,,,,
UncalMag,1764275003624,264026175841765,-21.84143,40.751648,-32.514954,0.0,0.0,0.0,3
UncalAccel,1764275003620,264026171019988,0.37478638,-0.6282654,10.287506,0.0,0.0,0.0,3
UncalGyro,1764275003617,264026168609099,-0.0101623535,0.0021362305,0.00048828125,-0.016403198,0.005783081,0.00039672852,3
Fix,FLP,41.4232250000,-81.4758923000,311.94690696495815,0.0,3.216,,1764275003604,0.1360147,,264026155828119,1.9916896,,,,
OrientationDeg,1764275003619,264026170989470,27.0,0.0,2.0,3
Pressure,1764275003626,264026177031951,974.7094,3
UncalMag,1764275003634,264026185607390,-21.84143,40.751648,-32.514954,0.0,0.0,0.0,3
OrientationDeg,1764275003629,264026180755095,27.0,0.0,2.0,3
UncalAccel,1764275003629,264026180785613,-0.06690979,-0.38980103,10.061295,0.0,0.0,0.0,3
UncalGyro,1764275003627,264026178374724,-0.005874634,0.018630981,0.0029296875,-0.016403198,0.005783081,0.00039672852,3
UncalMag,1764275003644,264026195342498,-21.84143,40.45105,-34.165955,0.0,0.0,0.0,3
UncalAccel,1764275003639,264026190520720,-0.009277344,-0.31825256,9.539078,0.0,0.0,0.0,3
UncalGyro,1764275003637,264026188109832,-0.02330017,-0.007019043,-0.0007324219,-0.016403198,0.005783081,0.00039672852,3
OrientationDeg,1764275003639,264026190490203,27.0,0.0,2.0,3
UncalMag,1764275003654,264026205108123,-21.84143,40.45105,-34.165955,0.0,0.0,0.0,3
UncalAccel,1764275003649,264026200286345,0.3795929,-0.61634827,10.056488,0.0,0.0,0.0,3
UncalGyro,1764275003646,264026197875457,-0.015350342,-0.007949829,-0.0016479492,-0.016403198,0.005783081,0.00039672852,3
OrientationDeg,1764275003649,264026200255828,27.0,0.0,2.0,3
UncalMag,1764275003663,264026214873748,-20.941162,40.00244,-32.666016,0.0,0.0,0.0,3
UncalAccel,1764275003659,264026210051970,0.16593933,-0.49473572,10.359711,0.0,0.0,0.0,3
UncalGyro,1764275003656,264026207641082,-0.009246826,0.007019043,0.0026245117,-0.016403198,0.005783081,0.00039672852,3
Pressure,1764275003664,264026215545134,974.7094,3
OrientationDeg,1764275003659,264026210021453,27.0,0.0,2.0,3
UncalMag,1764275003673,264026224639373,-20.941162,40.00244,-32.666016,0.0,0.0,0.0,3
UncalAccel,1764275003668,264026219817595,-0.16531372,-0.26101685,9.719559,0.0,0.0,0.0,3
UncalGyro,1764275003666,264026217406707,-0.011383057,0.018936157,0.00079345703,-0.016403198,0.005783081,0.00039672852,3
OrientationDeg,1764275003668,264026219787078,27.0,0.0,2.0,3
UncalMag,1764275003683,264026234404998,-20.491028,41.201782,-32.81555,0.0,0.0,0.0,3
UncalAccel,1764275003678,264026229583220,0.18275452,-0.4494171,9.772522,0.0,0.0,0.0,3
UncalGyro,1764275003676,264026227172332,-0.02053833,-0.022598267,-0.001953125,-0.016403198,0.005783081,0.00039672852,3
OrientationDeg,1764275003678,264026229552703,27.0,0.0,2.0,3
UncalMag,1764275003693,264026244170623,-19.741821,41.50238,-33.265686,0.0,0.0,0.0,3
UncalAccel,1764275003688,264026239348845,0.413208,-0.5567322,10.116653,0.0,0.0,0.0,3
UncalGyro,1764275003685,264026236937957,-0.011993408,0.0061035156,-0.0013427734,-0.016403198,0.005783081,0.00039672852,3
OrientationDeg,1764275003688,264026239318328,27.0,0.0,2.0,3
Pressure,1764275003702,264026253936248,974.6602,3
UncalMag,1764275003702,264026253936248,-21.84143,41.50238,-34.165955,0.0,0.0,0.0,3
UncalAccel,1764275003698,264026249114470,0.01953125,-0.4494171,10.261047,0.0,0.0,0.0,3
UncalGyro,1764275003695,264026246703582,-0.005874634,0.012512207,0.0041503906,-0.016403198,0.005783081,0.00039672852,3
OrientationDeg,1764275003698,264026249083953,27.0,0.0,2.0,3
OrientationDeg,1764275003707,264026258849578,27.0,0.0,2.0,3
UncalMag,1764275003712,264026263701873,-20.491028,40.751648,-33.71582,0.0,0.0,0.0,3
UncalAccel,1764275003707,264026258880095,-0.17733765,-0.30155945,9.507797,0.0,0.0,0.0,3
UncalGyro,1764275003705,264026256469207,-0.019012451,0.0048828125,0.00079345703,-0.016403198,0.005783081,0.00039672852,3
UncalMag,1764275003722,264026273467498,-21.84143,39.401245,-35.365295,0.0,0.0,0.0,3
UncalAccel,1764275003717,264026268645720,0.34358215,-0.54241943,10.015579,0.0,0.0,0.0,3
UncalGyro,1764275003715,264026266234832,-0.014129639,-0.016494751,-0.001953125,-0.016403198,0.005783081,0.00039672852,3
OrientationDeg,1764275003717,264026268615203,27.0,0.0,2.0,3
UncalMag,1764275003732,264026283233123,-22.291565,39.25171,-33.415222,0.0,0.0,0.0,3
UncalAccel,1764275003727,264026278411345,0.35317993,-0.54719543,10.2827,0.0,0.0,0.0,3
UncalGyro,1764275003725,264026276000457,-0.013519287,0.0076293945,0.00079345703,-0.016403198,0.005783081,0.00039672852,3
OrientationDeg,1764275003727,264026278380828,27.0,0.0,2.0,3
Pressure,1764275003741,264026292418914,974.6602,3
UncalMag,1764275003741,264026292998748,-21.090698,40.751648,-34.165955,0.0,0.0,0.0,3
UncalAccel,1764275003737,264026288176970,-0.090911865,-0.24433899,9.957809,0.0,0.0,0.0,3
UncalGyro,1764275003734,264026285766082,-0.0077209473,0.019241333,0.0038452148,-0.016403198,0.005783081,0.00039672852,3
OrientationDeg,1764275003737,264026288146453,27.0,0.0,2.0,3
UncalMag,1764275003751,264026302764373,-21.540833,41.201782,-34.465027,0.0,0.0,0.0,3
UncalAccel,1764275003746,264026297942595,-0.004470825,-0.3778839,9.611282,0.0,0.0,0.0,3
UncalGyro,1764275003744,264026295531707,-0.019638062,-0.0073242188,0.00048828125,-0.016403198,0.005783081,0.00039672852,3
OrientationDeg,1764275003746,264026297912078,27.0,0.0,2.0,3
UncalMag,1764275003761,264026312529998,-22.142029,40.151978,-34.91516,0.0,0.0,0.0,3
UncalAccel,1764275003756,264026307708220,0.33639526,-0.6139679,10.114258,0.0,0.0,0.0,3
UncalGyro,1764275003754,264026305297332,-0.01473999,-0.0051879883,-0.0007324219,-0.016403198,0.005783081,0.00039672852,3
OrientationDeg,1764275003756,264026307677703,27.0,0.0,2.0,3
UncalMag,1764275003771,264026322295623,-21.990967,40.60211,-33.865356,0.0,0.0,0.0,3
OrientationDeg,1764275003766,264026317443328,27.0,0.0,2.0,3
UncalAccel,1764275003766,264026317473845,0.12994385,-0.40171814,10.31398,0.0,0.0,0.0,3
UncalGyro,1764275003764,264026315062957,-0.0043640137,0.009460449,0.003250122,-0.016403198,0.005783081,0.00039672852,3
Pressure,1764275003779,264026330993132,974.6602,3
UncalAccel,1764275003776,264026327208953,-0.054901123,-0.28962708,9.635345,0.0,0.0,0.0,3
UncalGyro,1764275003773,264026324798064,-0.017501831,0.010070801,0.0010986328,-0.016403198,0.005783081,0.00039672852,3
UncalMag,1764275003781,264026332030730,-20.791626,39.701843,-34.465027,0.0,0.0,0.0,3
OrientationDeg,1764275003776,264026327178435,27.0,0.0,2.0,3
UncalMag,1764275003790,264026341796355,-21.84143,41.50238,-33.71582,0.0,0.0,0.0,3
UncalAccel,1764275003785,264026336974578,0.2523651,-0.48757935,9.871185,0.0,0.0,0.0,3
UncalGyro,1764275003783,264026334563689,-0.019317627,-0.017105103,0.00018310547,-0.016403198,0.005783081,0.00039672852,3
OrientationDeg,1764275003785,264026336944060,27.0,0.0,2.0,3
UncalAccel,1764275003795,264026346740203,0.30278015,-0.54481506,10.205704,0.0,0.0,0.0,3
UncalGyro,1764275003793,264026344329314,-0.009552002,0.009460449,0.00079345703,-0.016403198,0.005783081,0.00039672852,3
UncalMag,1764275003800,264026351561980,-20.941162,41.052246,-32.21588,0.0,0.0,0.0,3
OrientationDeg,1764275003795,264026346709685,27.0,0.0,2.0,3
UncalMag,1764275003810,264026361327605,-20.64209,40.301514,-33.415222,0.0,0.0,0.0,3
UncalAccel,1764275003805,264026356505828,-0.088516235,-0.24908447,10.082962,0.0,0.0,0.0,3
UncalGyro,1764275003803,264026354094939,-0.0101623535,0.013427734,0.0053710938,-0.016403198,0.005783081,0.00039672852,3
OrientationDeg,1764275003805,264026356475310,27.0,0.0,2.0,3
Pressure,1764275003818,264026369292693,974.6602,3
UncalMag,1764275003820,264026371093230,-20.491028,40.45105,-33.265686,0.0,0.0,0.0,3
UncalAccel,1764275003815,264026366271453,0.01953125,-0.29917908,9.543884,0.0,0.0,0.0,3
UncalGyro,1764275003812,264026363860564,-0.019927979,-0.003967285,0.00079345703,-0.016403198,0.005783081,0.00039672852,3
OrientationDeg,1764275003815,264026366240935,27.0,0.0,2.0,3
UncalMag,1764275003829,264026380858855,-20.64209,39.552307,-34.31549,0.0,0.0,0.0,3
UncalAccel,1764275003825,264026376037078,0.44200134,-0.6020355,10.123871,0.0,0.0,0.0,3
UncalGyro,1764275003822,264026373626189,-0.015045166,-0.009475708,-0.0010375977,-0.016403198,0.005783081,0.00039672852,3
OrientationDeg,1764275003825,264026376006560,27.0,-1.0,2.0,3
UncalAccel,1764275003834,264026385772185,0.19715881,-0.48995972,10.280304,0.0,0.0,0.0,3
UncalGyro,1764275003832,264026383361296,-0.009857178,0.01159668,0.0017089844,-0.016403198,0.005783081,0.00039672852,3
UncalMag,1764275003839,264026390593962,-20.64209,40.301514,-33.114624,0.0,0.0,0.0,3
OrientationDeg,1764275003834,264026385741668,27.0,-1.0,2.0,3
UncalMag,1764275003849,264026400359587,-21.540833,40.151978,-33.265686,0.0,0.0,0.0,3
UncalAccel,1764275003844,264026395537810,-0.23252869,-0.26101685,9.789352,0.0,0.0,0.0,3
UncalGyro,1764275003842,264026393126921,-0.012298584,0.01586914,0.003540039,-0.016403198,0.005783081,0.00039672852,3
OrientationDeg,1764275003844,264026395507293,27.0,-1.0,2.0,3
Pressure,1764275003856,264026407744841,974.62573,3
UncalMag,1764275003859,264026410125212,-20.941162,39.552307,-33.415222,0.0,0.0,0.0,3
UncalAccel,1764275003854,264026405303435,0.1083374,-0.36595154,9.652191,0.0,0.0,0.0,3
UncalGyro,1764275003851,264026402892546,-0.019317627,-0.014053345,-0.0022583008,-0.016403198,0.005783081,0.00039672852,3
OrientationDeg,1764275003854,264026405272918,27.0,-1.0,2.0,3
UncalMag,1764275003868,264026419890837,-21.090698,40.151978,-34.465027,0.0,0.0,0.0,3
UncalAccel,1764275003864,264026415069060,0.46839905,-0.6091919,10.191254,0.0,0.0,0.0,3
UncalGyro,1764275003861,264026412658171,-0.013824463,-0.0030517578,-0.0007324219,-0.016403198,0.005783081,0.00039672852,3
OrientationDeg,1764275003864,264026415038543,27.0,-1.0,2.0,3
UncalMag,1764275003878,264026429656462,-21.090698,40.45105,-33.265686,0.0,0.0,0.0,3
UncalAccel,1764275003873,264026424834685,0.06272888,-0.3158722,10.222534,0.0,0.0,0.0,3
UncalGyro,1764275003871,264026422423796,-0.0077209473,0.014953613,0.0038452148,-0.016403198,0.005783081,0.00039672852,3
OrientationDeg,1764275003873,264026424804168,27.0,-1.0,2.0,3
UncalMag,1764275003888,264026439422087,-21.090698,39.401245,-34.165955,0.0,0.0,0.0,3
UncalAccel,1764275003883,264026434600310,-0.13412476,-0.25386047,9.587219,0.0,0.0,0.0,3
UncalGyro,1764275003881,264026432189421,-0.018096924,0.00793457,-0.00012207031,-0.016403198,0.005783081,0.00039672852,3
OrientationDeg,1764275003883,264026434569793,27.0,-1.0,2.0,3
Pressure,1764275003895,264026446196990,974.62573,3
UncalMag,1764275003898,264026449187712,-23.791504,41.052246,-33.865356,0.0,0.0,0.0,3
UncalAccel,1764275003893,264026444365935,0.27397156,-0.54241943,9.996323,0.0,0.0,0.0,3
UncalGyro,1764275003890,264026441955046,-0.019012451,-0.016204834,-0.001953125,-0.016403198,0.005783081,0.00039672852,3
OrientationDeg,1764275003893,264026444335418,27.0,-1.0,2.0,3
UncalMag,1764275003907,264026458922820,-21.691895,41.052246,-33.415222,0.0,0.0,0.0,3
UncalAccel,1764275003903,264026454101043,0.2811737,-0.53764343,10.234573,0.0,0.0,0.0,3
UncalGyro,1764275003900,264026451690154,-0.0101623535,0.010375977,0.00018310547,-0.016403198,0.005783081,0.00039672852,3
OrientationDeg,1764275003903,264026454070525,27.0,-1.0,2.0,3
UncalMag,1764275003917,264026468688445,-21.090698,40.151978,-33.265686,0.0,0.0,0.0,3
UncalAccel,1764275003912,264026463866668,-0.035690308,-0.32302856,9.986694,0.0,0.0,0.0,3
UncalGyro,1764275003910,264026461455779,-0.011077881,0.014038086,0.0029296875,-0.016403198,0.005783081,0.00039672852,3
OrientationDeg,1764275003912,264026463836150,27.0,-1.0,2.0,3
UncalMag,1764275003927,264026478454070,-21.540833,40.151978,-33.265686,0.0,0.0,0.0,3
UncalAccel,1764275003922,264026473632293,0.021911621,-0.3969574,9.498154,0.0,0.0,0.0,3
UncalGyro,1764275003920,264026471221404,-0.02268982,-0.0061035156,-0.0013427734,-0.016403198,0.005783081,0.00039672852,3
OrientationDeg,1764275003922,264026473601775,27.0,-1.0,2.0,3
Pressure,1764275003933,264026484649138,974.62573,3
UncalMag,1764275003937,264026488219695,-21.090698,39.701843,-33.265686,0.0,0.0,0.0,3
UncalAccel,1764275003932,264026483397918,0.38919067,-0.6139679,10.157562,0.0,0.0,0.0,3
UncalGyro,1764275003929,264026480987029,-0.011383057,-0.0048828125,-0.001953125,-0.016403198,0.005783081,0.00039672852,3
OrientationDeg,1764275003932,264026483367400,27.0,-1.0,2.0,3
UncalMag,1764275003946,264026497985320,-21.24176,40.60211,-33.114624,0.0,0.0,0.0,3
UncalAccel,1764275003942,264026493163543,0.11793518,-0.5161896,10.258636,0.0,0.0,0.0,3
UncalGyro,1764275003939,264026490752654,-0.010467529,0.012207031,0.0029296875,-0.016403198,0.005783081,0.00039672852,3
OrientationDeg,1764275003942,264026493133025,27.0,-1.0,2.0,3
OrientationDeg,1764275003951,264026502898650,27.0,-1.0,2.0,3
UncalMag,1764275003956,264026507750945,-20.941162,40.00244,-33.415222,0.0,0.0,0.0,3
UncalAccel,1764275003951,264026502929168,-0.17253113,-0.28962708,9.741226,0.0,0.0,0.0,3
UncalGyro,1764275003949,264026500518279,-0.015655518,0.009155273,0.0010986328,-0.016403198,0.005783081,0.00039672852,3
UncalMag,1764275003966,264026517516570,-21.540833,40.45105,-34.165955,0.0,0.0,0.0,3
UncalAccel,1764275003961,264026512694793,0.29077148,-0.47087097,9.863968,0.0,0.0,0.0,3
UncalGyro,1764275003959,264026510283904,-0.017791748,-0.013442993,-0.0007324219,-0.016403198,0.005783081,0.00039672852,3
OrientationDeg,1764275003961,264026512664275,27.0,-1.0,2.0,3
Pressure,1764275003972,264026523131804,974.62573,3
UncalMag,1764275003976,264026527282195,-21.540833,41.201782,-34.465027,0.0,0.0,0.0,3
UncalAccel,1764275003971,264026522460418,0.36758423,-0.57102966,10.232162,0.0,0.0,0.0,3
UncalGyro,1764275003969,264026520049529,-0.013824463,0.0045776367,0.0014038086,-0.016403198,0.005783081,0.00039672852,3
OrientationDeg,1764275003971,264026522429900,27.0,-1.0,2.0,3
UncalMag,1764275003986,264026537047820,-21.24176,41.651917,-31.915283,0.0,0.0,0.0,3
UncalAccel,1764275003981,264026532226043,-0.0789032,-0.29917908,10.085373,0.0,0.0,0.0,3
OrientationDeg,1764275003981,264026532195525,27.0,-1.0,2.0,3
UncalGyro,1764275003978,264026529815154,-0.008026123,0.016174316,0.0041503906,-0.016403198,0.005783081,0.00039672852,3
UncalMag,1764275003995,264026546813445,-21.84143,40.751648,-34.465027,0.0,0.0,0.0,3
UncalAccel,1764275003990,264026541991668,-0.05970764,-0.3731079,9.505386,0.0,0.0,0.0,3
UncalGyro,1764275003988,264026539580779,-0.018096924,0.0012207031,-0.0016479492,-0.016403198,0.005783081,0.00039672852,3
OrientationDeg,1764275003990,264026541961150,27.0,-1.0,2.0,3
OrientationDeg,1764275004000,264026551726775,27.0,-1.0,2.0,3
UncalMag,1764275004005,264026556579070,-20.191956,39.552307,-34.31549,0.0,0.0,0.0,3
UncalAccel,1764275004000,264026551757293,0.38919067,-0.5924988,10.010757,0.0,0.0,0.0,3
UncalGyro,1764275003998,264026549346404,-0.020553589,-0.019866943,-0.0013427734,-0.016403198,0.005783081,0.00039672852,3
Pressure,1764275004011,264026562102752,974.6133,3
UncalMag,1764275004015,264026566344695,-21.24176,41.052246,-34.31549,0.0,0.0,0.0,3
UncalAccel,1764275004010,264026561522918,0.30758667,-0.47564697,10.285126,0.0,0.0,0.0,3
UncalGyro,1764275004008,264026559112029,-0.004058838,0.019241333,0.00079345703,-0.016403198,0.005783081,0.00039672852,3
OrientationDeg,1764275004010,264026561492400,27.0,-1.0,2.0,3
UncalMag,1764275004025,264026576110320,-21.090698,39.701843,-34.165955,0.0,0.0,0.0,3
UncalAccel,1764275004020,264026571288543,-0.14852905,-0.3206482,9.909683,0.0,0.0,0.0,3
UncalGyro,1764275004017,264026568877654,-0.015350342,0.006713867,0.0041503906,-0.016403198,0.005783081,0.00039672852,3
OrientationDeg,1764275004020,264026571258025,27.0,-1.0,2.0,3
UncalMag,1764275004034,264026585875945,-21.691895,41.052246,-32.666016,0.0,0.0,0.0,3
UncalAccel,1764275004030,264026581054168,0.03152466,-0.2920227,9.647369,0.0,0.0,0.0,3
UncalGyro,1764275004027,264026578643279,-0.01626587,-0.003982544,-0.0007324219,-0.016403198,0.005783081,0.00039672852,3
OrientationDeg,1764275004030,264026581023650,27.0,-1.0,2.0,3
UncalMag,1764275004044,264026595611052,-21.24176,39.25171,-33.415222,0.0,0.0,0.0,3
UncalAccel,1764275004039,264026590789275,0.3843994,-0.7141113,10.200882,0.0,0.0,0.0,3
UncalGyro,1764275004037,264026588378386,-0.011688232,-0.0061187744,-0.0007324219,-0.016403198,0.005783081,0.00039672852,3
OrientationDeg,1764275004039,264026590758757,27.0,-1.0,2.0,3
Pressure,1764275004049,264026600005584,974.6133,3
UncalMag,1764275004054,264026605376677,-21.24176,40.60211,-34.765625,0.0,0.0,0.0,3
UncalAccel,1764275004049,264026600554900,0.08433533,-0.3683319,10.215317,0.0,0.0,0.0,3
UncalGyro,1764275004047,264026598144011,-0.010772705,0.010375977,0.0029296875,-0.016403198,0.005783081,0.00039672852,3
OrientationDeg,1764275004049,264026600524382,27.0,-1.0,2.0,3
UncalMag,1764275004064,264026615142302,-20.941162,41.052246,-33.865356,0.0,0.0,0.0,3
UncalAccel,1764275004059,264026610320525,-0.052490234,-0.32302856,9.666626,0.0,0.0,0.0,3
UncalGyro,1764275004056,264026607909636,-0.011993408,0.009155273,0.0020141602,-0.016403198,0.005783081,0.00039672852,3
OrientationDeg,1764275004059,264026610290007,27.0,-1.0,2.0,3
UncalMag,1764275004073,264026624907927,-20.191956,39.552307,-33.865356,0.0,0.0,0.0,3
UncalAccel,1764275004069,264026620086150,0.295578,-0.5042572,9.844711,0.0,0.0,0.0,3
UncalGyro,1764275004066,264026617675261,-0.022369385,-0.014663696,-0.00012207031,-0.016403198,0.005783081,0.00039672852,3
OrientationDeg,1764275004069,264026620055632,27.0,-1.0,2.0,3
UncalMag,1764275004083,264026634673552,-20.040894,40.151978,-32.81555,0.0,0.0,0.0,3
UncalAccel,1764275004078,264026629851775,0.31477356,-0.50427246,10.301956,0.0,0.0,0.0,3
UncalGyro,1764275004076,264026627440886,-0.0058898926,0.009460449,0.0017089844,-0.016403198,0.005783081,0.00039672852,3
OrientationDeg,1764275004078,264026629821257,27.0,-1.0,2.0,3
Pressure,1764275004087,264026638457732,974.6133,3
UncalMag,1764275004093,264026644439177,-21.090698,40.45105,-34.165955,0.0,0.0,0.0,3
UncalAccel,1764275004088,264026639617400,-0.13652039,-0.34210205,9.969864,0.0,0.0,0.0,3
UncalGyro,1764275004086,264026637206511,-0.011688232,0.015579224,0.003250122,-0.016403198,0.005783081,0.00039672852,3
OrientationDeg,1764275004088,264026639586882,27.0,-1.0,2.0,3
UncalMag,1764275004103,264026654204802,-20.491028,41.201782,-34.165955,0.0,0.0,0.0,3
UncalAccel,1764275004098,264026649383025,0.012313843,-0.30393982,9.688278,0.0,0.0,0.0,3
UncalGyro,1764275004095,264026646972136,-0.0184021,-0.0073394775,-0.0010375977,-0.016403198,0.005783081,0.00039672852,3
OrientationDeg,1764275004098,264026649352507,27.0,-1.0,2.0,3
UncalMag,1764275004112,264026663939910,-21.090698,40.751648,-34.465027,0.0,0.0,0.0,3
UncalAccel,1764275004108,264026659118132,0.42520142,-0.5662689,10.054077,0.0,0.0,0.0,3
UncalGyro,1764275004105,264026656707244,-0.014129639,-0.006729126,-0.0013427734,-0.016403198,0.005783081,0.00039672852,3
OrientationDeg,1764275004108,264026659087615,27.0,-1.0,2.0,3
UncalMag,1764275004122,264026673705535,-21.691895,41.35132,-33.865356,0.0,0.0,0.0,3
UncalAccel,1764275004117,264026668883757,0.24996948,-0.41841125,10.292328,0.0,0.0,0.0,3
UncalGyro,1764275004115,264026666472869,-0.011077881,0.0119018555,0.0029296875,-0.016403198,0.005783081,0.00039672852,3
OrientationDeg,1764275004117,264026668853240,27.0,-1.0,2.0,3
Pressure,1764275004125,264026676909880,974.6133,3
UncalMag,1764275004132,264026683471160,-20.941162,41.052246,-33.865356,0.0,0.0,0.0,3
UncalAccel,1764275004127,264026678649382,-0.21333313,-0.27293396,9.746033,0.0,0.0,0.0,3
UncalGyro,1764275004125,264026676238494,-0.012908936,0.0158844,0.0038452148,-0.016403198,0.005783081,0.00039672852,3
OrientationDeg,1764275004127,264026678618865,27.0,-1.0,2.0,3
UncalMag,1764275004142,264026693236785,-21.84143,39.401245,-34.165955,0.0,0.0,0.0,3
UncalAccel,1764275004137,264026688415007,0.096343994,-0.44226074,9.644974,0.0,0.0,0.0,3
UncalGyro,1764275004135,264026686004119,-0.019927979,-0.013137817,-0.001953125,-0.016403198,0.005783081,0.00039672852,3
OrientationDeg,1764275004137,264026688384490,27.0,-1.0,2.0,3
UncalMag,1764275004152,264026703002410,-21.090698,40.751648,-34.465027,0.0,0.0,0.0,3
UncalAccel,1764275004147,264026698180632,0.47320557,-0.53289795,10.222534,0.0,0.0,0.0,3
UncalGyro,1764275004144,264026695769744,-0.011688232,-0.0045776367,-0.0016479492,-0.016403198,0.005783081,0.00039672852,3
OrientationDeg,1764275004147,264026698150115,27.0,-1.0,2.0,3
UncalMag,1764275004161,264026712768035,-22.291565,40.301514,-34.765625,0.0,0.0,0.0,3
UncalAccel,1764275004156,264026707946257,0.029129028,-0.4040985,10.162384,0.0,0.0,0.0,3
UncalGyro,1764275004154,264026705535369,-0.008636475,0.018630981,0.0029296875,-0.016403198,0.005783081,0.00039672852,3
OrientationDeg,1764275004156,264026707915740,27.0,-1.0,2.0,3
Pressure,1764275004164,264026715392546,974.6133,3
UncalMag,1764275004171,264026722533660,-19.891357,40.60211,-34.31549,0.0,0.0,0.0,3
UncalAccel,1764275004166,264026717711882,-0.12452698,-0.24671936,9.601639,0.0,0.0,0.0,3
UncalGyro,1764275004164,264026715300994,-0.019622803,0.0030517578,0.0017089844,-0.016403198,0.005783081,0.00039672852,3
OrientationDeg,1764275004166,264026717681365,27.0,-1.0,2.0,3
UncalAccel,1764275004176,264026727446990,0.29318237,-0.5614929,9.914505,0.0,0.0,0.0,3
UncalGyro,1764275004174,264026725036101,-0.016571045,-0.011001587,-0.0013427734,-0.016403198,0.005783081,0.00039672852,3
UncalMag,1764275004181,264026732268767,-20.941162,40.301514,-32.21588,0.0,0.0,0.0,3
OrientationDeg,1764275004176,264026727416472,27.0,-1.0,2.0,3
UncalMag,1764275004191,264026742034392,-22.291565,40.60211,-33.415222,0.0,0.0,0.0,3
UncalAccel,1764275004186,264026737212615,0.32678223,-0.52812195,10.256226,0.0,0.0,0.0,3
UncalGyro,1764275004183,264026734801726,-0.012298584,0.0036621094,0.0014038086,-0.016403198,0.005783081,0.00039672852,3
OrientationDeg,1764275004186,264026737182097,27.0,-1.0,2.0,3
UncalAccel,1764275004195,264026746917205,-0.12452698,-0.34925842,9.936157,0.0,0.0,0.0,3
UncalGyro,1764275004193,264026744506316,-0.0077209473,0.02015686,0.002319336,-0.016403198,0.005783081,0.00039672852,3
UncalMag,1764275004200,264026751800017,-22.291565,40.60211,-33.415222,0.0,0.0,0.0,3
OrientationDeg,1764275004195,264026746886687,27.0,-1.0,2.0,3
Pressure,1764275004203,264026754149871,974.5974,3
UncalMag,1764275004210,264026761565642,-20.941162,40.00244,-33.865356,0.0,0.0,0.0,3
UncalAccel,1764275004205,264026756743865,0.038726807,-0.39933777,9.606461,0.0,0.0,0.0,3
UncalGyro,1764275004203,264026754332976,-0.021774292,-0.011306763,-0.0004272461,-0.016403198,0.005783081,0.00039672852,3
OrientationDeg,1764275004205,264026756713347,27.0,-1.0,2.0,3
UncalMag,1764275004220,264026771331267,-20.941162,40.00244,-33.865356,0.0,0.0,0.0,3
UncalAccel,1764275004215,264026766509490,0.42759705,-0.5495758,10.094986,0.0,0.0,0.0,3
UncalGyro,1764275004213,264026764098601,-0.015045166,-0.0036621094,-0.0016479492,-0.016403198,0.005783081,0.00039672852,3
OrientationDeg,1764275004215,264026766478972,27.0,-1.0,2.0,3
UncalMag,1764275004230,264026781096892,-20.491028,40.751648,-33.265686,0.0,0.0,0.0,3
UncalAccel,1764275004225,264026776275115,0.12515259,-0.4017334,10.251419,0.0,0.0,0.0,3
UncalGyro,1764275004222,264026773864226,-0.008331299,0.014038086,0.003540039,-0.016403198,0.005783081,0.00039672852,3
OrientationDeg,1764275004225,264026776244597,27.0,-1.0,2.0,3
UncalMag,1764275004239,264026790862517,-20.491028,40.751648,-33.265686,0.0,0.0,0.0,3
UncalAccel,1764275004235,264026786040740,-0.21333313,-0.2872467,9.784546,0.0,0.0,0.0,3
UncalGyro,1764275004232,264026783629851,-0.015960693,0.010681152,0.0026245117,-0.016403198,0.005783081,0.00039672852,3
OrientationDeg,1764275004235,264026786010222,27.0,-1.0,2.0,3
Pressure,1764275004241,264026792327361,974.5974,3
UncalMag,1764275004249,264026800628142,-20.941162,40.60211,-34.31549,0.0,0.0,0.0,3
UncalAccel,1764275004244,264026795806365,0.22836304,-0.3969574,9.823059,0.0,0.0,0.0,3
UncalGyro,1764275004242,264026793395476,-0.017486572,-0.016494751,-0.001953125,-0.016403198,0.005783081,0.00039672852,3
OrientationDeg,1764275004244,264026795775847,27.0,-1.0,2.0,3
UncalMag,1764275004259,264026810393767,-20.941162,40.60211,-34.31549,0.0,0.0,0.0,3
UncalAccel,1764275004254,264026805571990,0.45161438,-0.6234894,10.205688,0.0,0.0,0.0,3
UncalGyro,1764275004252,264026803161101,-0.013519287,0.002746582,0.00079345703,-0.016403198,0.005783081,0.00039672852,3
OrientationDeg,1764275004254,264026805541472,27.0,-1.0,2.0,3
UncalMag,1764275004269,264026820159392,-20.941162,40.301514,-33.415222,0.0,0.0,0.0,3
UncalAccel,1764275004264,264026815337615,-0.07411194,-0.32302856,10.17923,0.0,0.0,0.0,3
UncalGyro,1764275004261,264026812926726,-0.00680542,0.014953613,0.0044555664,-0.016403198,0.005783081,0.00039672852,3
OrientationDeg,1764275004264,264026815307097,27.0,-1.0,2.0,3
UncalMag,1764275004278,264026829925017,-20.64209,40.00244,-33.865356,0.0,0.0,0.0,3
UncalAccel,1764275004274,264026825103240,-0.19892883,-0.38264465,9.553513,0.0,0.0,0.0,3
UncalGyro,1764275004271,264026822692351,-0.017791748,0.0048828125,0.0014038086,-0.016403198,0.005783081,0.00039672852,3
OrientationDeg,1764275004274,264026825072722,27.0,-1.0,2.0,3
Pressure,1764275004279,264026830748992,974.5974,3
UncalMag,1764275004288,264026839690642,-21.24176,40.301514,-34.31549,0.0,0.0,0.0,3
UncalAccel,1764275004283,264026834868865,0.4347992,-0.5209503,9.9722595,0.0,0.0,0.0,3
UncalGyro,1764275004281,264026832457976,-0.019317627,-0.02015686,-0.0010375977,-0.016403198,0.005783081,0.00039672852,3
OrientationDeg,1764275004283,264026834838347,27.0,-1.0,2.0,3
OrientationDeg,1764275004293,264026844603972,27.0,-1.0,2.0,3
UncalMag,1764275004298,264026849456267,-22.142029,41.50238,-34.91516,0.0,0.0,0.0,3
UncalAccel,1764275004293,264026844634490,0.377182,-0.5138092,10.27066,0.0,0.0,0.0,3
UncalGyro,1764275004291,264026842223601,-0.008026123,0.009155273,0.002319336,-0.016403198,0.005783081,0.00039672852,3
UncalMag,1764275004308,264026859221892,-21.691895,40.60211,-33.865356,0.0,0.0,0.0,3
UncalAccel,1764275004303,264026854400115,-0.20373535,-0.3158722,9.991516,0.0,0.0,0.0,3
UncalGyro,1764275004300,264026851989226,-0.008636475,0.018630981,0.004470825,-0.016403198,0.005783081,0.00039672852,3
OrientationDeg,1764275004303,264026854369597,27.0,-1.0,2.0,3
UncalMag,1764275004317,264026868987517,-21.84143,41.801453,-33.265686,0.0,0.0,0.0,3
UncalAccel,1764275004313,264026864165740,-0.086120605,-0.42796326,9.628128,0.0,0.0,0.0,3
UncalGyro,1764275004310,264026861754851,-0.020858765,-0.010696411,0.00079345703,-0.016403198,0.005783081,0.00039672852,3
Pressure,1764275004318,264026869597869,974.5974,3
OrientationDeg,1764275004313,264026864135222,27.0,-1.0,2.0,3
UncalMag,1764275004327,264026878753142,-20.191956,40.301514,-35.064697,0.0,0.0,0.0,3
UncalAccel,1764275004322,264026873931365,0.46839905,-0.49949646,10.217728,0.0,0.0,0.0,3
UncalGyro,1764275004320,264026871520476,-0.008636475,-0.0073242188,-0.0022583008,-0.016403198,0.005783081,0.00039672852,3
OrientationDeg,1764275004322,264026873900847,27.0,-1.0,2.0,3
UncalMag,1764275004337,264026888518767,-20.941162,40.00244,-34.31549,0.0,0.0,0.0,3
UncalAccel,1764275004332,264026883696990,0.21635437,-0.47564697,10.107025,0.0,0.0,0.0,3
UncalGyro,1764275004330,264026881286101,-0.017486572,0.0051879883,0.0056762695,-0.016403198,0.005783081,0.00039672852,3
OrientationDeg,1764275004332,264026883666472,27.0,-1.0,2.0,3
UncalMag,1764275004347,264026898284392,-21.540833,40.151978,-34.165955,0.0,0.0,0.0,3
UncalAccel,1764275004342,264026893462615,-0.09811401,-0.24194336,9.695511,0.0,0.0,0.0,3
UncalGyro,1764275004340,264026891051726,-0.0028381348,0.02229309,0.00048828125,-0.016403198,0.005783081,0.00039672852,3
OrientationDeg,1764275004342,264026893432097,27.0,-1.0,2.0,3
Pressure,1764275004356,264026907622771,974.5857,3
UncalAccel,1764275004352,264026903228240,0.137146,-0.2157135,9.779739,0.0,0.0,0.0,3
UncalGyro,1764275004349,264026900817351,-0.021469116,-0.025970459,-0.0016479492,-0.016403198,0.005783081,0.00039672852,3
UncalMag,1764275004357,264026908050017,-20.491028,40.151978,-34.465027,0.0,0.0,0.0,3
OrientationDeg,1764275004352,264026903197722,27.0,-1.0,2.0,3
UncalMag,1764275004366,264026917815642,-20.191956,40.60211,-34.765625,0.0,0.0,0.0,3
UncalAccel,1764275004361,264026912993865,0.49002075,-0.09170532,10.06131,0.0,0.0,0.0,3
UncalGyro,1764275004359,264026910582976,-0.00894165,0.0076293945,-0.001953125,-0.016403198,0.005783081,0.00039672852,3
OrientationDeg,1764275004361,264026912963347,27.0,-1.0,2.0,3
UncalMag,1764275004376,264026927550750,-21.090698,40.751648,-34.91516,0.0,0.0,0.0,3
UncalAccel,1764275004371,264026922728972,0.16593933,0.11100769,10.294739,0.0,0.0,0.0,3
UncalGyro,1764275004369,264026920318084,-0.000076293945,-0.003967285,0.002319336,-0.016403198,0.005783081,0.00039672852,3
OrientationDeg,1764275004371,264026922698455,27.0,-1.0,2.0,3
UncalMag,1764275004386,264026937285857,-20.941162,40.301514,-34.31549,0.0,0.0,0.0,3
UncalAccel,1764275004381,264026932464080,-0.02609253,0.32325745,9.368225,0.0,0.0,0.0,3
UncalGyro,1764275004379,264026930053191,-0.015045166,0.009765625,-0.0016479492,-0.016403198,0.005783081,0.00039672852,3
OrientationDeg,1764275004381,264026932433562,27.0,-1.0,2.0,3
Pressure,1764275004395,264026946105437,974.5857,3
UncalMag,1764275004396,264026947051482,-21.84143,39.701843,-34.165955,0.0,0.0,0.0,3
UncalAccel,1764275004391,264026942229705,0.35559082,0.0036773682,9.953003,0.0,0.0,0.0,3
UncalGyro,1764275004388,264026939818816,-0.0071105957,-0.020462036,-0.003479004,-0.016403198,0.005783081,0.00039672852,3
OrientationDeg,1764275004391,264026942199187,27.0,-1.0,2.0,3
UncalMag,1764275004405,264026956817107,-22.142029,38.65204,-35.365295,0.0,0.0,0.0,3
UncalAccel,1764275004400,264026951995330,0.2523651,-0.04638672,10.102203,0.0,0.0,0.0,3
UncalGyro,1764275004398,264026949584441,-0.004058838,0.00061035156,-0.0022583008,-0.016403198,0.005783081,0.00039672852,3
OrientationDeg,1764275004400,264026951964812,27.0,-1.0,2.0,3
UncalMag,1764275004415,264026966582732,-21.24176,40.60211,-34.31549,0.0,0.0,0.0,3
UncalAccel,1764275004410,264026961760955,-0.006881714,0.17538452,9.861557,0.0,0.0,0.0,3
UncalGyro,1764275004408,264026959350066,0.0011444092,0.005493164,-0.0025634766,-0.016403198,0.005783081,0.00039672852,3
OrientationDeg,1764275004410,264026961730437,27.0,-1.0,2.0,3
UncalMag,1764275004425,264026976348357,-21.24176,41.052246,-33.415222,0.0,0.0,0.0,3
UncalAccel,1764275004420,264026971526580,0.14674377,0.16108704,9.505386,0.0,0.0,0.0,3
UncalGyro,1764275004418,264026969115691,-0.009857178,-0.018630981,-0.0056152344,-0.016403198,0.005783081,0.00039672852,3
OrientationDeg,1764275004420,264026971496062,27.0,-1.0,2.0,3
Pressure,1764275004433,264026984527068,974.5857,3
UncalMag,1764275004435,264026986113982,-20.941162,39.552307,-34.31549,0.0,0.0,0.0,3
UncalAccel,1764275004430,264026981292205,0.42999268,0.091918945,10.061295,0.0,0.0,0.0,3
UncalGyro,1764275004427,264026978881316,-0.0007019043,-0.007949829,-0.00592041,-0.016403198,0.005783081,0.00039672852,3
OrientationDeg,1764275004430,264026981261687,27.0,-1.0,2.0,3
UncalMag,1764275004444,264026995849089,-20.791626,40.45105,-33.71582,0.0,0.0,0.0,3
UncalAccel,1764275004440,264026991027312,0.11793518,0.0871582,10.159973,0.0,0.0,0.0,3
UncalGyro,1764275004437,264026988616423,0.005706787,0.003967285,-0.003479004,-0.016403198,0.005783081,0.00039672852,3
OrientationDeg,1764275004439,264026990996794,27.0,-1.0,2.0,3
UncalMag,1764275004454,264027005614714,-21.24176,40.00244,-33.865356,0.0,0.0,0.0,3
UncalAccel,1764275004449,264027000792937,-0.10050964,0.24217224,9.637741,0.0,0.0,0.0,3
UncalGyro,1764275004447,264026998382048,-0.002822876,0.00030517578,-0.0043945312,-0.016403198,0.005783081,0.00039672852,3
OrientationDeg,1764275004449,264027000762419,27.0,-1.0,2.0,3
UncalMag,1764275004464,264027015380339,-20.791626,40.151978,-32.514954,0.0,0.0,0.0,3
UncalAccel,1764275004459,264027010558562,0.26916504,0.23023987,9.904877,0.0,0.0,0.0,3
UncalGyro,1764275004457,264027008147673,0.0011444092,-0.019866943,-0.008056641,-0.016403198,0.005783081,0.00039672852,3
OrientationDeg,1764275004459,264027010528044,27.0,-1.0,2.0,3
Pressure,1764275004471,264027022979216,974.5857,3
UncalMag,1764275004474,264027025145964,-21.540833,40.151978,-33.71582,0.0,0.0,0.0,3
UncalAccel,1764275004469,264027020324187,0.35317993,0.020385742,10.07814,0.0,0.0,0.0,3
UncalGyro,1764275004466,264027017913298,0.0014343262,0.0018310547,-0.007446289,-0.016403198,0.005783081,0.00039672852,3
OrientationDeg,1764275004469,264027020293669,27.0,-1.0,2.0,3
UncalMag,1764275004483,264027034911589,-21.24176,40.00244,-35.064697,0.0,0.0,0.0,3
UncalAccel,1764275004479,264027030089812,-0.035690308,0.11576843,10.188858,0.0,0.0,0.0,3
UncalGyro,1764275004476,264027027678923,0.0032653809,0.0061035156,-0.0053100586,-0.016403198,0.005783081,0.00039672852,3
OrientationDeg,1764275004479,264027030059294,27.0,-1.0,2.0,3
UncalMag,1764275004493,264027044677214,-21.84143,39.401245,-33.265686,0.0,0.0,0.0,3
UncalAccel,1764275004488,264027039855437,-0.050094604,0.25646973,9.522232,0.0,0.0,0.0,3
UncalGyro,1764275004486,264027037444548,-0.0016021729,0.003967285,-0.006225586,-0.016403198,0.005783081,0.00039672852,3
OrientationDeg,1764275004488,264027039824919,27.0,-1.0,2.0,3
UncalMag,1764275004503,264027054442839,-21.691895,40.301514,-33.114624,0.0,0.0,0.0,3
UncalAccel,1764275004498,264027049621062,0.32678223,0.1181488,10.167191,0.0,0.0,0.0,3
UncalGyro,1764275004496,264027047210173,-0.002822876,-0.012832642,-0.008361816,-0.016403198,0.005783081,0.00039672852,3
OrientationDeg,1764275004498,264027049590544,27.0,-1.0,2.0,3
Pressure,1764275004510,264027061431365,974.5824,3
UncalMag,1764275004513,264027064177947,-20.941162,41.052246,-33.865356,0.0,0.0,0.0,3
UncalAccel,1764275004508,264027059356169,0.2667694,0.015609741,10.273071,0.0,0.0,0.0,3
UncalGyro,1764275004505,264027056945281,0.001449585,0.009765625,-0.0065307617,-0.016403198,0.005783081,0.00039672852,3
OrientationDeg,1764275004508,264027059325652,27.0,-1.0,2.0,3
UncalMag,1764275004522,264027073943572,-20.64209,40.301514,-33.114624,0.0,0.0,0.0,3
UncalAccel,1764275004518,264027069121794,-0.11251831,-0.008239746,10.147934,0.0,0.0,0.0,3
UncalGyro,1764275004515,264027066710906,-0.00038146973,0.012817383,-0.0043945312,-0.016403198,0.005783081,0.00039672852,3
OrientationDeg,1764275004518,264027069091277,27.0,-1.0,2.0,3
UncalMag,1764275004532,264027083709197,-20.941162,41.35132,-33.865356,0.0,0.0,0.0,3
UncalAccel,1764275004527,264027078887419,0.15634155,0.2374115,9.743637,0.0,0.0,0.0,3
UncalGyro,1764275004525,264027076476531,-0.008026123,-0.009780884,-0.0068359375,-0.016403198,0.005783081,0.00039672852,3
OrientationDeg,1764275004527,264027078856902,27.0,-1.0,2.0,3
UncalMag,1764275004542,264027093474822,-21.090698,41.201782,-33.71582,0.0,0.0,0.0,3
UncalAccel,1764275004537,264027088653044,0.5452118,-0.055923462,10.23938,0.0,0.0,0.0,3
UncalGyro,1764275004535,264027086242156,-0.0022277832,0.0024414062,-0.008682251,-0.016403198,0.005783081,0.00039672852,3
OrientationDeg,1764275004537,264027088622527,27.0,-1.0,2.0,3
Pressure,1764275004548,264027099914031,974.5824,3
UncalMag,1764275004552,264027103240447,-20.791626,41.201782,-36.116028,0.0,0.0,0.0,3
UncalAccel,1764275004547,264027098418669,0.07714844,0.053756714,10.448761,0.0,0.0,0.0,3
UncalGyro,1764275004545,264027096007781,-0.0046691895,0.010070801,-0.0031738281,-0.016403198,0.005783081,0.00039672852,3
OrientationDeg,1764275004547,264027098388152,27.0,-1.0,2.0,3
UncalMag,1764275004562,264027113006072,-20.791626,40.751648,-33.265686,0.0,0.0,0.0,3
UncalAccel,1764275004557,264027108184294,-0.2685547,0.10147095,9.620895,0.0,0.0,0.0,3
UncalGyro,1764275004554,264027105773406,-0.00894165,0.019241333,-0.0040893555,-0.016403198,0.005783081,0.00039672852,3
OrientationDeg,1764275004557,264027108153777,27.0,-1.0,2.0,3
UncalMag,1764275004571,264027122771697,-21.691895,41.052246,-35.064697,0.0,0.0,0.0,3
UncalAccel,1764275004566,264027117949919,0.43959045,0.20640564,10.352493,0.0,0.0,0.0,3
UncalGyro,1764275004564,264027115539031,-0.005264282,-0.028717041,-0.009902954,-0.016403198,0.005783081,0.00039672852,3
OrientationDeg,1764275004566,264027117919402,27.0,-1.0,2.0,3
UncalMag,1764275004581,264027132537322,-20.491028,39.701843,-33.71582,0.0,0.0,0.0,3
UncalAccel,1764275004576,264027127715544,0.535614,-0.008239746,10.133499,0.0,0.0,0.0,3
UncalGyro,1764275004574,264027125304656,-0.017486572,0.0051879883,-0.0040893555,-0.016403198,0.005783081,0.00039672852,3
OrientationDeg,1764275004576,264027127685027,27.0,-1.0,2.0,3
Pressure,1764275004587,264027138335662,974.5824,3
UncalMag,1764275004591,264027142302947,-19.891357,41.35132,-34.765625,0.0,0.0,0.0,3
UncalAccel,1764275004586,264027137481169,-0.009277344,0.010848999,10.354904,0.0,0.0,0.0,3
UncalGyro,1764275004584,264027135070281,-0.005264282,0.014053345,-0.0016479492,-0.016403198,0.005783081,0.00039672852,3
OrientationDeg,1764275004586,264027137450652,27.0,-1.0,2.0,3
Raw,1764275003643,132954317000000,,,-1448177267326458247,-0.661590576171875,4208.4576562047005,-9.224926030620868,8.818272952889611,2613,22,0.0,207,84203573531272,7,37.7,-145.98260498046875,0.24700000882148743,0,0.0,0.0,1600312450,,,,0,,3,-0.3,,,,,,,,,,,,,,,,,,,,,,,,
Raw,1764275003643,132954317000000,,,-1448177267326458247,-0.661590576171875,4208.4576562047005,-9.224926030620868,8.818272952889611,2613,12,0.0,207,84203574554989,10,34.4,308.84100341796875,0.2596000134944916,0,0.0,0.0,1601437440,,,,0,,3,-0.3,,,,,,,,,,,,,,,,,,,,,,,,
Raw,1764275003643,132954317000000,,,-1448177267326458247,-0.661590576171875,4208.4576562047005,-9.224926030620868,8.818272952889611,2613,23,0.0,207,84203571094948,16,29.1,-676.228271484375,0.29089999198913574,0,0.0,0.0,1603687550,,,,0,,3,-0.3,,,,,,,,,,,,,,,,,,,,,,,,
Raw,1764275003643,132954317000000,,,-1448177267326458247,-0.661590576171875,4208.4576562047005,-9.224926030620868,8.818272952889611,2613,21,0.0,207,84203564562274,24,25.5,582.2693481445312,1.3665001392364502,0,0.0,0.0,1604249980,,,,0,,3,-0.3,,,,,,,,,,,,,,,,,,,,,,,,
Raw,1764275003643,132954317000000,,,-1448177267326458247,-0.661590576171875,4208.4576562047005,-9.224926030620868,8.818272952889611,2613,3,0.0,207,84203573601538,10,34.8,229.34494018554688,0.2581000030040741,0,0.0,0.0,1604812540,,,,0,,3,-0.3,,,,,,,,,,,,,,,,,,,,,,,,
Raw,1764275003643,132954317000000,,,-1448177267326458247,-0.661590576171875,4208.4576562047005,-9.224926030620868,8.818272952889611,2613,4,0.0,207,84203568558900,10,34.2,-428.4389343261719,0.25060001015663147,0,0.0,0.0,1605374980,,,,0,,3,-0.3,,,,,,,,,,,,,,,,,,,,,,,,
Raw,1764275003643,132954317000000,,,-1448177267326458247,-0.661590576171875,4208.4576562047005,-9.224926030620868,8.818272952889611,2613,4,0.0,15,419021566548864,12,32.0,676.9945678710938,0.057499997317790985,0,0.0,0.0,1575420030,,,,0,,1,0.96,,,,,,,,,,,,,,,,,,,,,,,,
Raw,1764275003643,132954317000000,,,-1448177267326458247,-0.661590576171875,4208.4576562047005,-9.224926030620868,8.818272952889611,2613,7,0.0,15,419021571133215,13,31.0,-415.4009094238281,0.07159999758005142,0,0.0,0.0,1575420030,,,,0,,1,0.96,,,,,,,,,,,,,,,,,,,,,,,,
Raw,1764275003643,132954317000000,,,-1448177267326458247,-0.661590576171875,4208.4576562047005,-9.224926030620868,8.818272952889611,2613,8,0.0,15,419021576909670,19,27.7,-87.21138000488281,0.18770000338554382,0,0.0,0.0,1575420030,,,,0,,1,0.96,,,,,,,,,,,,,,,,,,,,,,,,
Raw,1764275003643,132954317000000,,,-1448177267326458247,-0.661590576171875,4208.4576562047005,-9.224926030620868,8.818272952889611,2613,9,0.0,15,419021572259607,9,35.7,407.4485168457031,0.05250000208616257,0,0.0,0.0,1575420030,,,,0,,1,0.96,,,,,,,,,,,,,,,,,,,,,,,,
Raw,1764275003643,132954317000000,,,-1448177267326458247,-0.661590576171875,4208.4576562047005,-9.224926030620868,8.818272952889611,2613,16,0.0,15,419021567231653,12,32.3,578.7701416015625,0.05900000035762787,0,0.0,0.0,1575420030,,,,0,,1,0.96,,,,,,,,,,,,,,,,,,,,,,,,
Raw,1764275003643,132954317000000,,,-1448177267326458247,-0.661590576171875,4208.4576562047005,-9.224926030620868,8.818272952889611,2613,27,0.0,15,419021573714913,9,35.6,341.94744873046875,0.05400000140070915,0,0.0,0.0,1575420030,,,,0,,1,0.96,,,,,,,,,,,,,,,,,,,,,,,,
Raw,1764275003643,132954317000000,,,-1448177267326458247,-0.661590576171875,4208.4576562047005,-9.224926030620868,8.818272952889611,2613,30,0.0,15,419021565363847,13,31.6,-590.4170532226562,0.06260000169277191,0,0.0,0.0,1575420030,,,,0,,1,0.96,,,,,,,,,,,,,,,,,,,,,,,,
Status,1764275003000,18,0,1,4,1575420030,32.00,184.0,26.0,1,1,0,
Status,1764275003000,18,1,1,7,1575420030,31.00,309.0,52.0,1,1,0,
Status,1764275003000,18,2,1,8,1575420030,27.70,135.0,72.0,0,1,1,
Status,1764275003000,18,3,1,9,1575420030,35.70,226.0,46.0,1,1,0,
Status,1764275003000,18,4,1,16,1575420030,32.30,61.0,28.0,1,1,0,
Status,1764275003000,18,5,1,27,1575420030,35.60,61.0,52.0,1,1,0,
Status,1764275003000,18,6,1,30,1575420030,31.60,305.0,23.0,1,1,0,
Status,1764275003000,18,7,1,2,1575420030,0.00,146.0,11.0,0,1,0,
Status,1764275003000,18,8,1,14,1575420030,0.00,257.0,2.0,0,1,0,
Status,1764275003000,18,9,1,18,1575420030,0.00,0.0,0.0,0,1,0,
Status,1764275003000,18,10,1,21,1575420030,0.00,300.0,1.0,0,1,0,
Status,1764275003000,18,11,3,22,1602000000,37.70,80.0,39.0,1,1,0,
Status,1764275003000,18,12,3,12,1602000000,34.40,53.0,44.0,1,1,0,
Status,1764275003000,18,13,3,23,1602000000,29.10,133.0,30.0,0,1,0,
Status,1764275003000,18,14,3,21,1602000000,25.50,22.0,10.0,1,1,0,
Status,1764275003000,18,15,3,3,1602000000,34.80,272.0,39.0,1,1,1,
Status,1764275003000,18,16,3,4,1602000000,34.20,326.0,20.0,0,1,0,
Status,1764275003000,18,17,3,2,1602000000,0.00,209.0,18.0,0,1,0,
UncalMag,1764275004601,264027152068572,-20.64209,39.552307,-33.415222,0.0,0.0,0.0,3
UncalAccel,1764275004596,264027147185759,-0.062088013,0.20162964,9.921722,0.0,0.0,0.0,3
UncalGyro,1764275004593,264027144774871,-0.009246826,-0.0033721924,-0.006225586,-0.016403198,0.005783081,0.00039672852,3
OrientationDeg,1764275004596,264027147155242,27.0,-1.0,2.0,3
UncalMag,1764275004610,264027161834197,-20.040894,40.751648,-34.165955,0.0,0.0,0.0,3
UncalAccel,1764275004606,264027157012419,0.50442505,0.17062378,10.150345,0.0,0.0,0.0,3
UncalGyro,1764275004603,264027154601531,-0.022384644,-0.018936157,-0.0068359375,-0.016403198,0.005783081,0.00039672852,3
OrientationDeg,1764275004605,264027156981902,27.0,-1.0,2.0,3
UncalMag,1764275004620,264027171599822,-21.84143,39.701843,-32.81555,0.0,0.0,0.0,3
UncalAccel,1764275004615,264027166778044,0.41558838,-0.067855835,10.427109,0.0,0.0,0.0,3
UncalGyro,1764275004613,264027164367156,-0.009552002,0.006713867,-0.005004883,-0.016403198,0.005783081,0.00039672852,3
OrientationDeg,1764275004615,264027166747527,27.0,-1.0,2.0,3
Fix,GPS,41.4232244800,-81.4758920600,309.89520263671875,0.0,3.216,,1764275004000,0.1360147,,264027154564937,4.0,,,,
Pressure,1764275004626,264027177092986,974.5824,3
Fix,FLP,41.4232245000,-81.4758921000,312.03850752945556,0.0,3.216,,1764275004603,0.1360147,,264027154564937,2.0727403,,,,
UncalMag,1764275004630,264027181365447,-20.791626,40.151978,-34.91516,0.0,0.0,0.0,3
UncalAccel,1764275004625,264027176543669,-0.16531372,0.12054443,10.080551,0.0,0.0,0.0,3
OrientationDeg,1764275004625,264027176513152,27.0,-1.0,2.0,3
UncalGyro,1764275004623,264027174132781,-0.011993408,0.011291504,-0.0028686523,-0.016403198,0.005783081,0.00039672852,3
UncalMag,1764275004640,264027191131072,-21.990967,40.301514,-35.064697,0.0,0.0,0.0,3
UncalAccel,1764275004635,264027186309294,0.14915466,0.21356201,9.895248,0.0,0.0,0.0,3
UncalGyro,1764275004632,264027183898406,-0.01687622,-0.013442993,-0.008056641,-0.016403198,0.005783081,0.00039672852,3
OrientationDeg,1764275004635,264027186278777,27.0,-1.0,2.0,3
UncalMag,1764275004649,264027200896697,-20.791626,40.45105,-34.165955,0.0,0.0,0.0,3
UncalAccel,1764275004645,264027196074919,0.50442505,0.027526855,10.220123,0.0,0.0,0.0,3
UncalGyro,1764275004642,264027193664031,-0.017791748,-0.0073394775,-0.0071411133,-0.016403198,0.005783081,0.00039672852,3
OrientationDeg,1764275004645,264027196044402,27.0,-1.0,2.0,3
UncalMag,1764275004659,264027210662322,-21.24176,41.35132,-34.31549,0.0,0.0,0.0,3
UncalAccel,1764275004654,264027205840544,0.14915466,0.008453369,10.381363,0.0,0.0,0.0,3
UncalGyro,1764275004652,264027203429656,-0.01260376,0.010070801,-0.0037841797,-0.016403198,0.005783081,0.00039672852,3
OrientationDeg,1764275004654,264027205810027,27.0,-1.0,2.0,3
Pressure,1764275004664,264027215239959,974.5838,3
UncalMag,1764275004669,264027220427947,-22.291565,40.301514,-32.21588,0.0,0.0,0.0,3
UncalAccel,1764275004664,264027215606169,-0.16772461,0.1515503,9.801392,0.0,0.0,0.0,3
UncalGyro,1764275004662,264027213195281,-0.01473999,0.013427734,-0.006225586,-0.016403198,0.005783081,0.00039672852,3
OrientationDeg,1764275004664,264027215575652,27.0,-1.0,2.0,3
UncalMag,1764275004679,264027230193572,-19.891357,40.60211,-35.064697,0.0,0.0,0.0,3
UncalAccel,1764275004674,264027225371794,0.3507843,0.23023987,10.114258,0.0,0.0,0.0,3
UncalGyro,1764275004671,264027222960906,-0.017791748,-0.019241333,-0.010513306,-0.016403198,0.005783081,0.00039672852,3
OrientationDeg,1764275004674,264027225341277,27.0,-1.0,2.0,3
UncalMag,1764275004688,264027239959197,-21.990967,40.60211,-34.765625,0.0,0.0,0.0,3
UncalAccel,1764275004684,264027235137419,0.47080994,-0.08932495,10.094986,0.0,0.0,0.0,3
UncalGyro,1764275004681,264027232726531,-0.019012451,0.010986328,-0.01020813,-0.016403198,0.005783081,0.00039672852,3
OrientationDeg,1764275004684,264027235106902,27.0,-1.0,2.0,3
UncalMag,1764275004698,264027249724822,-20.941162,41.052246,-33.415222,0.0,0.0,0.0,3
UncalAccel,1764275004693,264027244903044,-0.050094604,-0.01777649,10.345276,0.0,0.0,0.0,3
UncalGyro,1764275004691,264027242492156,-0.011993408,0.011291504,-0.006225586,-0.016403198,0.005783081,0.00039672852,3
OrientationDeg,1764275004693,264027244872527,27.0,-1.0,2.0,3
Pressure,1764275004702,264027253692107,974.5838,3
UncalMag,1764275004708,264027259459929,-21.24176,41.052246,-33.415222,0.0,0.0,0.0,3
UncalAccel,1764275004703,264027254638152,-0.11250305,0.24455261,9.601639,0.0,0.0,0.0,3
UncalGyro,1764275004701,264027252227263,-0.014129639,0.0119018555,-0.010803223,-0.016403198,0.005783081,0.00039672852,3
OrientationDeg,1764275004703,264027254607634,27.0,-1.0,2.0,3
UncalMag,1764275004718,264027269195037,-21.24176,40.60211,-34.31549,0.0,0.0,0.0,3
UncalAccel,1764275004713,264027264373259,0.5212097,-0.0034637451,10.109436,0.0,0.0,0.0,3
UncalGyro,1764275004710,264027261962371,-0.02330017,-0.020462036,-0.0138549805,-0.016403198,0.005783081,0.00039672852,3
OrientationDeg,1764275004713,264027264342742,27.0,-1.0,2.0,3
UncalMag,1764275004727,264027278960662,-21.84143,40.751648,-34.165955,0.0,0.0,0.0,3
UncalAccel,1764275004723,264027274138884,0.377182,-0.12031555,10.236984,0.0,0.0,0.0,3
UncalGyro,1764275004720,264027271727996,-0.014434814,0.014953613,-0.011734009,-0.016403198,0.005783081,0.00039672852,3
OrientationDeg,1764275004723,264027274108367,27.0,-1.0,2.0,3
UncalMag,1764275004737,264027288726287,-21.090698,40.751648,-34.465027,0.0,0.0,0.0,3
UncalAccel,1764275004732,264027283904509,-0.09811401,-0.005844116,9.981888,0.0,0.0,0.0,3
UncalGyro,1764275004730,264027281493621,-0.011993408,0.017715454,-0.009597778,-0.016403198,0.005783081,0.00039672852,3
OrientationDeg,1764275004732,264027283873992,27.0,-1.0,2.0,3
Pressure,1764275004741,264027292174773,974.5838,3
UncalMag,1764275004747,264027298491912,-20.191956,40.00244,-33.415222,0.0,0.0,0.0,3
UncalAccel,1764275004742,264027293670134,0.060317993,0.1968689,9.676254,0.0,0.0,0.0,3
UncalGyro,1764275004740,264027291259246,-0.020858765,-0.0076446533,-0.015090942,-0.016403198,0.005783081,0.00039672852,3
OrientationDeg,1764275004742,264027293639617,27.0,-1.0,2.0,3
UncalMag,1764275004757,264027308257537,-21.540833,40.151978,-34.165955,0.0,0.0,0.0,3
UncalAccel,1764275004752,264027303435759,0.5284271,-0.12271118,10.131088,0.0,0.0,0.0,3
UncalGyro,1764275004750,264027301024871,-0.018707275,-0.003967285,-0.015090942,-0.016403198,0.005783081,0.00039672852,3
OrientationDeg,1764275004752,264027303405242,27.0,-1.0,2.0,3
UncalMag,1764275004767,264027318023162,-21.540833,40.151978,-34.165955,0.0,0.0,0.0,3
UncalAccel,1764275004762,264027313201384,0.1899414,-0.07739258,10.220123,0.0,0.0,0.0,3
UncalGyro,1764275004759,264027310790496,-0.015045166,0.010681152,-0.011734009,-0.016403198,0.005783081,0.00039672852,3
OrientationDeg,1764275004762,264027313170867,27.0,-1.0,2.0,3
